url,id,region,province,locality,zip_code,Longitude,Latitude,property_type,property_subtype,price,number_rooms,living_area,kitchen,furnished,fireplace,terrace,terrace_area,garden,garden_area,surface_land,number_facades,swimming_pool,building_state,energy_type,EPC_score,EnergyConsumptionPerSqm,parking_outdoor,parking_indoor,price_per_sqm
https://www.immoweb.be/en/classified/apartment/for-sale/ronse/9600/11172503,11172503.0,Flanders,East Flanders,Ronse,9600.0,3.6049071,50.7530888,APARTMENT,APARTMENT,1650000.0,28.0,1200.0,unknown,,-1.0,0,0.0,0,0.0,0.0,2.0,,unknown,unknown,C,288.0,,,1375.0
https://www.immoweb.be/en/classified/apartment/for-sale/antwerp/2018/11172483,11172483.0,Flanders,Antwerp,Antwerp,2018.0,4.4245647,51.2087314,APARTMENT,APARTMENT,249000.0,2.0,72.0,INSTALLED,,-1.0,0,0.0,0,0.0,0.0,2.0,,GOOD,GAS,B,191.0,,,3458.33
https://www.immoweb.be/en/classified/apartment/for-sale/forest/1190/11172470,11172470.0,Brussels,Brussels,Forest,1190.0,,,APARTMENT,APARTMENT,295000.0,2.0,80.0,INSTALLED,,1.0,1,6.0,0,0.0,0.0,2.0,,unknown,FUELOIL,E,224.0,,1.0,3687.5
https://www.immoweb.be/en/classified/apartment/for-sale/zellik/1731/11033986,11033986.0,Flanders,Flemish Brabant,Zellik,1731.0,4.2703253,50.8844112,APARTMENT,APARTMENT,155000.0,2.0,75.0,INSTALLED,0.0,,1,7.0,0,0.0,0.0,2.0,,JUST_RENOVATED,unknown,B,158.0,,,2066.67
https://www.immoweb.be/en/classified/apartment/for-sale/gent/9031/11131788,11131788.0,Flanders,East Flanders,Gent,9031.0,3.6178853,51.0370292,APARTMENT,APARTMENT,275000.0,2.0,91.0,unknown,,,0,0.0,0,0.0,0.0,2.0,,GOOD,unknown,B,146.0,,1.0,3021.98
https://www.immoweb.be/en/classified/penthouse/for-sale/aalst/9300/11173191,11173191.0,Flanders,East Flanders,AALST,9300.0,4.0366774,50.936522,APARTMENT,PENTHOUSE,575000.0,2.0,231.0,INSTALLED,,,0,0.0,0,0.0,0.0,2.0,,GOOD,GAS,B,189.0,,2.0,2489.18
https://www.immoweb.be/en/classified/loft/for-sale/aalst/9300/11173190,11173190.0,Flanders,East Flanders,AALST,9300.0,4.0366774,50.936522,APARTMENT,LOFT,575000.0,2.0,231.0,INSTALLED,,,0,0.0,0,0.0,0.0,2.0,,GOOD,GAS,B,189.0,,2.0,2489.18
https://www.immoweb.be/en/classified/apartment/for-sale/schilde/2970/11173182,11173182.0,Flanders,Antwerp,Schilde,2970.0,4.5858019,51.2369835,APARTMENT,APARTMENT,275000.0,1.0,72.0,INSTALLED,,-1.0,1,20.0,0,0.0,0.0,2.0,,GOOD,GAS,B,167.0,,1.0,3819.44
https://www.immoweb.be/en/classified/apartment/for-sale/antwerpen/2000/11173167,11173167.0,Flanders,Antwerp,Antwerpen,2000.0,4.4086242,51.2228078,APARTMENT,APARTMENT,189000.0,1.0,40.0,INSTALLED,0.0,,0,0.0,0,0.0,0.0,2.0,False,GOOD,ELECTRIC,C,222.0,,,4725.0
https://www.immoweb.be/en/classified/apartment/for-sale/antwerp/2020/11173136,11173136.0,Flanders,Antwerp,Antwerp,2020.0,4.3922458,51.1825801,APARTMENT,APARTMENT,178000.0,2.0,84.0,INSTALLED,,-1.0,1,5.0,0,0.0,0.0,4.0,,JUST_RENOVATED,FUELOIL,C,251.0,1.0,,2119.05
https://www.immoweb.be/en/classified/apartment/for-sale/antwerp/2020/11173129,11173129.0,Flanders,Antwerp,Antwerp,2020.0,4.3915097,51.1821925,APARTMENT,APARTMENT,179000.0,2.0,83.0,SEMI_EQUIPPED,,-1.0,1,9.0,0,0.0,0.0,2.0,,GOOD,FUELOIL,B,174.0,,,2156.63
https://www.immoweb.be/en/classified/apartment/for-sale/antwerp/2020/11173128,11173128.0,Flanders,Antwerp,Antwerp,2020.0,4.3922458,51.1825801,APARTMENT,APARTMENT,178000.0,2.0,84.0,INSTALLED,,-1.0,1,5.0,0,0.0,0.0,4.0,,JUST_RENOVATED,FUELOIL,C,251.0,1.0,,2119.05
https://www.immoweb.be/en/classified/apartment/for-sale/mont-saint-guibert/1435/11174211,11174211.0,Wallonie,Walloon Brabant,Mont-Saint-Guibert,1435.0,4.6168315,50.627537,APARTMENT,APARTMENT,439000.0,3.0,147.0,unknown,,,1,29.0,0,0.0,0.0,2.0,,GOOD,unknown,A,0.0,,,2986.39
https://www.immoweb.be/en/classified/apartment/for-sale/eprave/5580/11174176,11174176.0,Wallonie,Namur,EPRAVE,5580.0,5.1586741,50.1431051,APARTMENT,APARTMENT,250000.0,3.0,160.0,INSTALLED,,,1,0.0,0,0.0,0.0,2.0,,JUST_RENOVATED,unknown,B,110.0,1.0,,1562.5
https://www.immoweb.be/en/classified/flat-studio/for-sale/gent/9000/11174164,11174164.0,Flanders,East Flanders,Gent,9000.0,3.7016383,51.0630403,APARTMENT,FLAT_STUDIO,940000.0,4.0,160.0,INSTALLED,1.0,,1,40.0,0,0.0,0.0,2.0,False,AS_NEW,GAS,B,193.0,,,5875.0
https://www.immoweb.be/en/classified/flat-studio/for-sale/gent/9000/11174163,11174163.0,Flanders,East Flanders,Gent,9000.0,3.7015736,51.0630141,APARTMENT,FLAT_STUDIO,235000.0,1.0,40.0,INSTALLED,1.0,,1,40.0,0,0.0,0.0,2.0,False,AS_NEW,GAS,B,158.0,,,5875.0
https://www.immoweb.be/en/classified/flat-studio/for-sale/gent/9000/11174160,11174160.0,Flanders,East Flanders,Gent,9000.0,3.7016383,51.0630403,APARTMENT,FLAT_STUDIO,235000.0,1.0,40.0,INSTALLED,1.0,,1,40.0,0,0.0,0.0,2.0,False,AS_NEW,GAS,B,193.0,,,5875.0
https://www.immoweb.be/en/classified/apartment/for-sale/geel/2440/11172718,11172718.0,Flanders,Antwerp,Geel,2440.0,5.0043152,51.1631206,APARTMENT,APARTMENT,209000.0,1.0,61.0,USA_INSTALLED,,-1.0,0,0.0,0,0.0,0.0,2.0,,GOOD,ELECTRIC,C,220.0,,,3426.23
https://www.immoweb.be/en/classified/apartment/for-sale/geel/2440/11172717,11172717.0,Flanders,Antwerp,Geel,2440.0,5.0043152,51.1631206,APARTMENT,APARTMENT,209000.0,1.0,61.0,USA_INSTALLED,,-1.0,0,0.0,0,0.0,0.0,2.0,,GOOD,ELECTRIC,C,228.0,,,3426.23
https://www.immoweb.be/en/classified/apartment/for-sale/deurne/2100/11172669,11172669.0,Flanders,Antwerp,Deurne,2100.0,4.4582564,51.2128495,APARTMENT,APARTMENT,209000.0,2.0,70.0,INSTALLED,,-1.0,1,4.0,0,0.0,0.0,2.0,,GOOD,GAS,F,510.0,,,2985.71
https://www.immoweb.be/en/classified/apartment/for-sale/vilvorde/1800/11172663,11172663.0,Flanders,Flemish Brabant,VILVORDE,1800.0,4.4251352,50.9332119,APARTMENT,APARTMENT,279000.0,3.0,130.0,USA_HYPER_EQUIPPED,,,0,0.0,0,0.0,0.0,2.0,,GOOD,unknown,F,924.0,,1.0,2146.15
https://www.immoweb.be/en/classified/apartment/for-sale/liege%201/4000/11173106,11173106.0,Wallonie,Liège,Liege 1,4000.0,5.5667816,50.634711,APARTMENT,APARTMENT,179000.0,1.0,59.0,INSTALLED,0.0,,0,0.0,0,0.0,0.0,4.0,,unknown,GAS,B,103.0,,1.0,3033.9
https://www.immoweb.be/en/classified/apartment/for-sale/woluwe-saint-lambert/1200/11173100,11173100.0,Brussels,Brussels,Woluwe-Saint-Lambert,1200.0,4.4296412,50.8449654,APARTMENT,APARTMENT,455000.0,3.0,122.0,HYPER_EQUIPPED,0.0,,1,4.0,0,0.0,0.0,2.0,,unknown,FUELOIL,D,177.0,,,3729.51
https://www.immoweb.be/en/classified/apartment/for-sale/sint-kruis/8310/11173099,11173099.0,Flanders,West Flanders,Sint-Kruis,8310.0,3.247044,51.2133109,APARTMENT,APARTMENT,205000.0,2.0,71.0,SEMI_EQUIPPED,0.0,,0,0.0,0,0.0,0.0,2.0,False,TO_BE_DONE_UP,GAS,C,242.0,,1.0,2887.32
https://www.immoweb.be/en/classified/apartment/for-sale/heusden-zolder/3550/11173095,11173095.0,Flanders,Limburg,Heusden-Zolder,3550.0,5.2845217,51.0396059,APARTMENT,APARTMENT,225000.0,2.0,128.0,HYPER_EQUIPPED,0.0,,1,0.0,0,0.0,0.0,3.0,,GOOD,GAS,C,247.0,2.0,1.0,1757.81
https://www.immoweb.be/en/classified/apartment/for-sale/gent/9000/11173078,11173078.0,Flanders,East Flanders,Gent,9000.0,,,APARTMENT,APARTMENT,369000.0,2.0,63.0,INSTALLED,,-1.0,1,3.0,0,0.0,0.0,2.0,,JUST_RENOVATED,GAS,B,135.0,,,5857.14
https://www.immoweb.be/en/classified/apartment/for-sale/li%C3%A8ge/4000/10848435,10848435.0,Wallonie,Liège,Liège,4000.0,5.5703376,50.6232483,APARTMENT,APARTMENT,329000.0,2.0,98.0,INSTALLED,0.0,,1,30.0,1,85.0,0.0,2.0,False,AS_NEW,GAS,C,228.0,,,3357.14
https://www.immoweb.be/en/classified/apartment/for-sale/de%20haan/8420/11169287,11169287.0,Flanders,West Flanders,De Haan,8420.0,3.0260735,51.2682601,APARTMENT,APARTMENT,269000.0,2.0,60.0,unknown,,,0,0.0,0,0.0,0.0,2.0,True,GOOD,ELECTRIC,C,260.0,,1.0,4483.33
https://www.immoweb.be/en/classified/ground-floor/for-sale/seilles/5300/11169278,11169278.0,Wallonie,Namur,SEILLES,5300.0,5.0953616,50.4996014,APARTMENT,GROUND_FLOOR,180000.0,1.0,67.0,INSTALLED,,-1.0,1,0.0,0,0.0,0.0,2.0,,AS_NEW,GAS,B,111.0,,1.0,2686.57
https://www.immoweb.be/en/classified/apartment/for-sale/ottignies/1340/11101370,11101370.0,Wallonie,Walloon Brabant,Ottignies,1340.0,,,APARTMENT,APARTMENT,295000.0,2.0,86.0,INSTALLED,,-1.0,1,8.0,0,0.0,0.0,2.0,,AS_NEW,GAS,C,185.0,,1.0,3430.23
https://www.immoweb.be/en/classified/duplex/for-sale/wevelgem/8560/11173661,11173661.0,Flanders,West Flanders,Wevelgem,8560.0,,,APARTMENT,DUPLEX,239000.0,2.0,98.0,unknown,,,1,5.0,0,0.0,0.0,2.0,,GOOD,GAS,C,236.0,,,2438.78
https://www.immoweb.be/en/classified/penthouse/for-sale/harelbeke/8530/11173660,11173660.0,Flanders,West Flanders,Harelbeke,8530.0,,,APARTMENT,PENTHOUSE,465000.0,2.0,89.0,unknown,,,1,23.0,0,0.0,0.0,2.0,,GOOD,GAS,B,106.0,,,5224.72
https://www.immoweb.be/en/classified/apartment/for-sale/aalter/9880/11173654,11173654.0,Flanders,East Flanders,Aalter,9880.0,3.449541,51.08632,APARTMENT,APARTMENT,220000.0,1.0,69.0,unknown,,,0,0.0,0,0.0,0.0,2.0,,unknown,unknown,A,91.0,,,3188.41
https://www.immoweb.be/en/classified/apartment/for-sale/gent/9000/11173649,11173649.0,Flanders,East Flanders,Gent,9000.0,3.7329012,51.0498266,APARTMENT,APARTMENT,215000.0,1.0,68.0,unknown,,,0,0.0,0,0.0,0.0,2.0,,unknown,unknown,B,190.0,,,3161.76
https://www.immoweb.be/en/classified/apartment/for-sale/gembloux/5030/11173642,11173642.0,Wallonie,Namur,Gembloux,5030.0,4.6937226,50.5675718,APARTMENT,APARTMENT,169000.0,1.0,75.0,INSTALLED,,,1,7.0,0,0.0,0.0,2.0,,unknown,GAS,B,96.0,,,2253.33
https://www.immoweb.be/en/classified/apartment/for-sale/antwerpen%20%282018%29/2018/11173638,11173638.0,Flanders,Antwerp,Antwerpen (2018),2018.0,4.3907475,51.2010172,APARTMENT,APARTMENT,285000.0,2.0,75.0,unknown,,,1,0.0,0,0.0,0.0,2.0,,AS_NEW,GAS,B,122.0,1.0,,3800.0
https://www.immoweb.be/en/classified/flat-studio/for-sale/hoboken/2660/11173631,11173631.0,Flanders,Antwerp,Hoboken,2660.0,4.3685056,51.186252,APARTMENT,FLAT_STUDIO,109000.0,1.0,44.0,INSTALLED,,,0,0.0,0,0.0,0.0,2.0,,unknown,GAS,B,119.0,,,2477.27
https://www.immoweb.be/en/classified/apartment/for-sale/diest/3290/11173624,11173624.0,Flanders,Flemish Brabant,Diest,3290.0,5.058534,50.989243,APARTMENT,APARTMENT,365000.0,3.0,94.0,HYPER_EQUIPPED,,,1,16.0,0,0.0,0.0,2.0,,unknown,GAS,A,64.0,2.0,,3882.98
https://www.immoweb.be/en/classified/apartment/for-sale/sint-truiden/3800/11173620,11173620.0,Flanders,Limburg,Sint-Truiden,3800.0,5.1874336,50.8140339,APARTMENT,APARTMENT,245000.0,2.0,105.0,INSTALLED,,,1,10.0,0,0.0,0.0,2.0,,unknown,unknown,B,135.0,,,2333.33
https://www.immoweb.be/en/classified/apartment/for-sale/antwerpen%20%282000%29/2000/11173617,11173617.0,Flanders,Antwerp,Antwerpen (2000),2000.0,4.3972133,51.2083316,APARTMENT,APARTMENT,759000.0,3.0,155.0,HYPER_EQUIPPED,,,0,0.0,0,0.0,0.0,2.0,,AS_NEW,unknown,B,171.0,,,4896.77
https://www.immoweb.be/en/classified/apartment/for-sale/nieuwpoort/8620/11173616,11173616.0,Flanders,West Flanders,Nieuwpoort,8620.0,,,APARTMENT,APARTMENT,825000.0,3.0,128.0,unknown,,,0,0.0,0,0.0,0.0,2.0,,TO_RENOVATE,unknown,C,266.0,,,6445.31
https://www.immoweb.be/en/classified/apartment/for-sale/knokke-heist/8300/11170737,11170737.0,Flanders,West Flanders,Knokke-Heist,8300.0,3.302557,51.3550698,APARTMENT,APARTMENT,1045000.0,2.0,100.0,unknown,,,1,0.0,0,0.0,0.0,2.0,,TO_BE_DONE_UP,GAS,B,106.0,,,10450.0
https://www.immoweb.be/en/classified/flat-studio/for-sale/hasselt/3500/11170731,11170731.0,Flanders,Limburg,Hasselt,3500.0,5.3468128,50.9319064,APARTMENT,FLAT_STUDIO,105000.0,0.0,28.0,unknown,,,0,0.0,0,0.0,0.0,2.0,,GOOD,ELECTRIC,D,304.0,,,3750.0
https://www.immoweb.be/en/classified/penthouse/for-sale/roeselare/8800/11170724,11170724.0,Flanders,West Flanders,Roeselare,8800.0,3.119135,50.9476263,APARTMENT,PENTHOUSE,850000.0,2.0,151.0,unknown,,,1,30.0,0,0.0,0.0,2.0,,GOOD,unknown,B,151.0,,2.0,5629.14
https://www.immoweb.be/en/classified/apartment/for-sale/antwerp/2018/11170696,11170696.0,Flanders,Antwerp,Antwerp,2018.0,4.4234353,51.2102675,APARTMENT,APARTMENT,375000.0,2.0,98.0,INSTALLED,,-1.0,1,15.0,0,0.0,0.0,3.0,,GOOD,GAS,B,103.0,,1.0,3826.53
https://www.immoweb.be/en/classified/apartment/for-sale/ixelles/1050/11170689,11170689.0,Brussels,Brussels,Ixelles,1050.0,,,APARTMENT,APARTMENT,540000.0,3.0,130.0,unknown,,-1.0,1,14.0,0,0.0,0.0,2.0,,GOOD,GAS,D,159.0,,,4153.85
https://www.immoweb.be/en/classified/flat-studio/for-sale/molenbeek/1080/11172825,11172825.0,Brussels,Brussels,MOLENBEEK,1080.0,,,APARTMENT,FLAT_STUDIO,123000.0,0.0,40.0,SEMI_EQUIPPED,1.0,-1.0,1,6.0,0,0.0,0.0,2.0,,TO_RENOVATE,FUELOIL,F,290.0,,,3075.0
https://www.immoweb.be/en/classified/apartment/for-sale/bruxelles/1000/11172819,11172819.0,Brussels,Brussels,Bruxelles,1000.0,,,APARTMENT,APARTMENT,375000.0,2.0,169.0,USA_SEMI_EQUIPPED,0.0,,1,3.0,0,0.0,0.0,2.0,False,GOOD,FUELOIL,E,225.0,,,2218.93
https://www.immoweb.be/en/classified/apartment/for-sale/ieper/8900/11172818,11172818.0,Flanders,West Flanders,Ieper,8900.0,2.8785656,50.8489554,APARTMENT,APARTMENT,155000.0,1.0,51.0,INSTALLED,0.0,,0,0.0,0,0.0,0.0,4.0,False,GOOD,GAS,C,259.0,,,3039.22
https://www.immoweb.be/en/classified/apartment/for-sale/ieper/8900/11172817,11172817.0,Flanders,West Flanders,Ieper,8900.0,2.8785656,50.8489554,APARTMENT,APARTMENT,155000.0,1.0,39.0,INSTALLED,0.0,,0,0.0,0,0.0,0.0,4.0,False,GOOD,GAS,D,307.0,,,3974.36
https://www.immoweb.be/en/classified/apartment/for-sale/sint-pieters-leeuw/1600/11172812,11172812.0,Flanders,Flemish Brabant,Sint-Pieters-Leeuw,1600.0,4.2856758,50.7915154,APARTMENT,APARTMENT,299000.0,2.0,90.0,unknown,0.0,,1,0.0,0,0.0,0.0,2.0,False,unknown,GAS,C,210.0,,,3322.22
https://www.immoweb.be/en/classified/apartment/for-sale/genk/3600/11172804,11172804.0,Flanders,Limburg,Genk,3600.0,5.5234633,50.9408302,APARTMENT,APARTMENT,285000.0,2.0,99.0,USA_HYPER_EQUIPPED,0.0,,1,0.0,0,0.0,0.0,2.0,,AS_NEW,GAS,B,191.0,1.0,1.0,2878.79
https://www.immoweb.be/en/classified/apartment/for-sale/oostende/8400/11172775,11172775.0,Flanders,West Flanders,Oostende,8400.0,2.9123118,51.2185486,APARTMENT,APARTMENT,495000.0,5.0,163.0,unknown,,,0,0.0,0,0.0,0.0,2.0,,GOOD,GAS,B,165.0,,,3036.81
https://www.immoweb.be/en/classified/apartment/for-sale/deurne/2100/11078748,11078748.0,Flanders,Antwerp,Deurne,2100.0,4.4795326,51.2236255,APARTMENT,APARTMENT,229000.0,2.0,100.0,HYPER_EQUIPPED,,,0,0.0,0,0.0,0.0,2.0,,AS_NEW,GAS,B,113.0,,,2290.0
https://www.immoweb.be/en/classified/apartment/for-sale/jette/1090/11149727,11149727.0,Brussels,Brussels,Jette,1090.0,,,APARTMENT,APARTMENT,159000.0,1.0,59.0,SEMI_EQUIPPED,,-1.0,1,10.0,0,0.0,0.0,2.0,,unknown,GAS,G,493.0,,,2694.92
https://www.immoweb.be/en/classified/apartment/for-sale/evergem/9940/11169207,11169207.0,Flanders,East Flanders,Evergem,9940.0,3.7053197,51.1104341,APARTMENT,APARTMENT,279000.0,2.0,95.0,INSTALLED,0.0,,0,0.0,0,0.0,0.0,2.0,False,GOOD,GAS,A,91.0,1.0,,2936.84
https://www.immoweb.be/en/classified/apartment/for-sale/middelkerke/8430/11169205,11169205.0,Flanders,West Flanders,MIDDELKERKE,8430.0,2.7946151,51.1791531,APARTMENT,APARTMENT,199000.0,1.0,36.0,INSTALLED,1.0,,1,0.0,0,0.0,0.0,2.0,,GOOD,ELECTRIC,E,442.0,,,5527.78
https://www.immoweb.be/en/classified/flat-studio/for-sale/middelkerke/8430/11169204,11169204.0,Flanders,West Flanders,MIDDELKERKE,8430.0,2.8118071,51.1865762,APARTMENT,FLAT_STUDIO,169000.0,0.0,33.0,INSTALLED,1.0,,0,0.0,0,0.0,0.0,2.0,,GOOD,ELECTRIC,D,400.0,,,5121.21
https://www.immoweb.be/en/classified/apartment/for-sale/beersel/1650/11169194,11169194.0,Flanders,Flemish Brabant,Beersel,1650.0,4.3155833,50.7546331,APARTMENT,APARTMENT,225000.0,0.0,107.0,unknown,0.0,,0,0.0,0,0.0,0.0,4.0,False,unknown,GAS,B,168.0,,,2102.8
https://www.immoweb.be/en/classified/duplex/for-sale/seneffe/7180/11169189,11169189.0,Wallonie,Hainaut,Seneffe,7180.0,4.2562955,50.5311123,APARTMENT,DUPLEX,178000.0,2.0,80.0,SEMI_EQUIPPED,0.0,,1,10.0,0,0.0,0.0,2.0,False,GOOD,GAS,C,213.0,,,2225.0
https://www.immoweb.be/en/classified/duplex/for-sale/seneffe/7180/11169188,11169188.0,Wallonie,Hainaut,Seneffe,7180.0,4.2562955,50.5311123,APARTMENT,DUPLEX,178000.0,2.0,80.0,INSTALLED,0.0,,1,4.0,0,0.0,0.0,2.0,False,TO_BE_DONE_UP,GAS,D,269.0,,,2225.0
https://www.immoweb.be/en/classified/penthouse/for-sale/schaerbeek/1030/11169174,11169174.0,Brussels,Brussels,Schaerbeek,1030.0,4.3892364,50.8504744,APARTMENT,PENTHOUSE,470000.0,2.0,108.0,USA_INSTALLED,,,1,70.0,0,0.0,0.0,2.0,,AS_NEW,GAS,C,133.0,1.0,,4351.85
https://www.immoweb.be/en/classified/apartment/for-sale/knokke-heist/8300/11169168,11169168.0,Flanders,West Flanders,Knokke-Heist,8300.0,3.2833927,51.3503726,APARTMENT,APARTMENT,995000.0,2.0,73.0,unknown,,,1,0.0,0,0.0,0.0,2.0,,GOOD,unknown,A,90.0,,,13630.14
https://www.immoweb.be/en/classified/duplex/for-sale/knokke/8300/11169166,11169166.0,Flanders,West Flanders,Knokke,8300.0,3.2858042,51.3421938,APARTMENT,DUPLEX,1945000.0,4.0,203.0,unknown,,,0,0.0,0,0.0,0.0,2.0,,GOOD,unknown,A,71.0,,,9581.28
https://www.immoweb.be/en/classified/duplex/for-sale/mechelen/2800/11166672,11166672.0,Flanders,Antwerp,Mechelen,2800.0,4.4803152,51.0230336,APARTMENT,DUPLEX,1199000.0,2.0,239.0,HYPER_EQUIPPED,,-1.0,0,0.0,0,0.0,0.0,2.0,,AS_NEW,GAS,B,105.0,,,5016.74
https://www.immoweb.be/en/classified/duplex/for-sale/mechelen/2800/11166671,11166671.0,Flanders,Antwerp,Mechelen,2800.0,4.4803152,51.0230336,APARTMENT,DUPLEX,1275000.0,2.0,183.0,HYPER_EQUIPPED,,-1.0,0,0.0,0,0.0,0.0,2.0,,AS_NEW,GAS,B,106.0,,,6967.21
https://www.immoweb.be/en/classified/apartment/for-sale/berchem-sainte-agathe/1082/11166666,11166666.0,Brussels,Brussels,Berchem-Sainte-Agathe,1082.0,4.2926378,50.8700498,APARTMENT,APARTMENT,265000.0,2.0,100.0,INSTALLED,0.0,,1,10.0,0,0.0,0.0,2.0,False,AS_NEW,GAS,C,110.0,1.0,,2650.0
https://www.immoweb.be/en/classified/apartment/for-sale/bois-de-villers/5170/11166659,11166659.0,Wallonie,Namur,BOIS-DE-VILLERS,5170.0,4.8037702,50.3878242,APARTMENT,APARTMENT,295000.0,4.0,188.0,USA_HYPER_EQUIPPED,,,0,0.0,0,0.0,0.0,2.0,,unknown,FUELOIL,C,246.0,2.0,,1569.15
https://www.immoweb.be/en/classified/apartment/for-sale/deurne/2100/11122495,11122495.0,Flanders,Antwerp,Deurne,2100.0,4.4825563,51.2283262,APARTMENT,APARTMENT,218000.0,2.0,81.0,INSTALLED,,-1.0,1,10.0,0,0.0,0.0,2.0,,GOOD,GAS,B,131.0,,1.0,2691.36
https://www.immoweb.be/en/classified/apartment/for-sale/antwerp/2050/11166653,11166653.0,Flanders,Antwerp,Antwerp,2050.0,4.3666975,51.2198759,APARTMENT,APARTMENT,299000.0,2.0,100.0,INSTALLED,,-1.0,1,8.0,0,0.0,0.0,2.0,,unknown,unknown,A,92.0,,1.0,2990.0
https://www.immoweb.be/en/classified/apartment/for-sale/bruxelles/1000/11166649,11166649.0,Brussels,Brussels,Bruxelles,1000.0,4.3526741,50.8571707,APARTMENT,APARTMENT,349000.0,2.0,95.0,unknown,0.0,,1,9.0,0,0.0,0.0,2.0,False,AS_NEW,GAS,C,115.0,,,3673.68
https://www.immoweb.be/en/classified/apartment/for-sale/antwerpen%20borgerhout/2140/11166646,11166646.0,Flanders,Antwerp,Antwerpen Borgerhout,2140.0,4.4349291,51.2145679,APARTMENT,APARTMENT,169000.0,2.0,82.0,INSTALLED,0.0,,1,4.0,0,0.0,0.0,2.0,,unknown,unknown,F,625.0,,,2060.98
https://www.immoweb.be/en/classified/apartment/for-sale/antwerp/2018/11168629,11168629.0,Flanders,Antwerp,Antwerp,2018.0,4.4257264,51.2158931,APARTMENT,APARTMENT,309000.0,2.0,108.0,USA_HYPER_EQUIPPED,,,0,0.0,0,0.0,0.0,3.0,,GOOD,GAS,B,166.0,,1.0,2861.11
https://www.immoweb.be/en/classified/apartment/for-sale/antwerpen%20deurne/2100/11168628,11168628.0,Flanders,Antwerp,Antwerpen Deurne,2100.0,4.468986,51.2334479,APARTMENT,APARTMENT,269000.0,2.0,135.0,USA_HYPER_EQUIPPED,,,0,0.0,0,0.0,0.0,2.0,,GOOD,GAS,A,82.0,1.0,1.0,1992.59
https://www.immoweb.be/en/classified/service-flat/for-sale/kapellen/2950/11168604,11168604.0,Flanders,Antwerp,Kapellen,2950.0,4.428595,51.3099631,APARTMENT,SERVICE_FLAT,138000.0,1.0,48.0,unknown,0.0,,1,0.0,0,0.0,0.0,2.0,,unknown,unknown,B,153.0,,,2875.0
https://www.immoweb.be/en/classified/apartment/for-sale/ninove%20meerbeke/9402/11061428,11061428.0,Flanders,East Flanders,Ninove Meerbeke,9402.0,4.0370481,50.8240436,APARTMENT,APARTMENT,150000.0,1.0,141.0,INSTALLED,,,1,25.0,1,25.0,0.0,2.0,,GOOD,PELLET,E,470.0,,,1063.83
https://www.immoweb.be/en/classified/apartment/for-sale/namur/5000/11168581,11168581.0,Wallonie,Namur,Namur,5000.0,4.8420687,50.4601121,APARTMENT,APARTMENT,120000.0,1.0,35.0,unknown,0.0,,0,0.0,0,0.0,0.0,2.0,,GOOD,ELECTRIC,E,381.0,,,3428.57
https://www.immoweb.be/en/classified/apartment/for-sale/jette/1090/11168579,11168579.0,Brussels,Brussels,Jette,1090.0,,,APARTMENT,APARTMENT,239000.0,2.0,88.0,HYPER_EQUIPPED,,,1,3.0,0,0.0,0.0,2.0,,GOOD,GAS,G,444.0,2.0,1.0,2715.91
https://www.immoweb.be/en/classified/apartment/for-sale/turnhout/2300/11168578,11168578.0,Flanders,Antwerp,Turnhout,2300.0,4.9467274,51.3271939,APARTMENT,APARTMENT,189000.0,1.0,54.0,unknown,0.0,,0,0.0,0,0.0,0.0,2.0,,AS_NEW,unknown,C,207.0,,,3500.0
https://www.immoweb.be/en/classified/apartment/for-sale/bruxelles/1000/11108347,11108347.0,Brussels,Brussels,BRUXELLES,1000.0,4.3583465,50.8526076,APARTMENT,APARTMENT,330000.0,2.0,100.0,INSTALLED,,,1,8.0,0,0.0,0.0,2.0,False,GOOD,GAS,E,274.0,,,3300.0
https://www.immoweb.be/en/classified/apartment/for-sale/antwerpen%20merksem/2170/11168691,11168691.0,Flanders,Antwerp,Antwerpen Merksem,2170.0,4.4385337,51.2595155,APARTMENT,APARTMENT,244000.0,2.0,85.0,HYPER_EQUIPPED,0.0,,1,6.0,0,0.0,0.0,2.0,,GOOD,unknown,B,147.0,1.0,1.0,2870.59
https://www.immoweb.be/en/classified/apartment/for-sale/antwerp/2000/11166158,11166158.0,Flanders,Antwerp,Antwerp,2000.0,4.3931526,51.2090596,APARTMENT,APARTMENT,210000.0,1.0,42.0,INSTALLED,0.0,,0,0.0,0,0.0,0.0,2.0,,unknown,GAS,B,190.0,,,5000.0
https://www.immoweb.be/en/classified/apartment/for-sale/antwerp/2000/11166155,11166155.0,Flanders,Antwerp,Antwerp,2000.0,4.3931526,51.2090596,APARTMENT,APARTMENT,219000.0,1.0,42.0,INSTALLED,0.0,,0,0.0,0,0.0,0.0,2.0,,unknown,GAS,C,249.0,,,5214.29
https://www.immoweb.be/en/classified/apartment/for-sale/liedekerke/1770/11166153,11166153.0,Flanders,Flemish Brabant,Liedekerke,1770.0,4.0834766,50.8717104,APARTMENT,APARTMENT,175000.0,2.0,69.0,SEMI_EQUIPPED,,-1.0,0,0.0,0,0.0,0.0,2.0,,TO_BE_DONE_UP,GAS,F,862.0,,,2536.23
https://www.immoweb.be/en/classified/apartment/for-sale/bouillon/6830/11166140,11166140.0,Wallonie,Luxembourg,Bouillon,6830.0,5.0651937,49.7919666,APARTMENT,APARTMENT,135000.0,1.0,73.0,INSTALLED,0.0,,0,0.0,0,0.0,0.0,2.0,False,GOOD,ELECTRIC,C,251.0,,,1849.32
https://www.immoweb.be/en/classified/flat-studio/for-sale/antwerp/2018/11166133,11166133.0,Flanders,Antwerp,Antwerp,2018.0,4.4190349,51.2122711,APARTMENT,FLAT_STUDIO,147900.0,0.0,34.0,INSTALLED,0.0,,0,0.0,0,0.0,0.0,2.0,False,GOOD,ELECTRIC,F,590.0,,,4350.0
https://www.immoweb.be/en/classified/apartment/for-sale/gent/9000/11166131,11166131.0,Flanders,East Flanders,Gent,9000.0,3.7188906,51.0338427,APARTMENT,APARTMENT,380000.0,3.0,103.0,HYPER_EQUIPPED,,,1,8.0,0,0.0,0.0,2.0,,AS_NEW,GAS,B,105.0,,,3689.32
https://www.immoweb.be/en/classified/apartment/for-sale/hasselt/3500/11166130,11166130.0,Flanders,Limburg,Hasselt,3500.0,5.339888,50.9326618,APARTMENT,APARTMENT,399750.0,2.0,100.0,unknown,,,1,10.0,0,0.0,0.0,2.0,,unknown,unknown,A,47.0,,,3997.5
https://www.immoweb.be/en/classified/apartment/for-sale/gent/9000/11166128,11166128.0,Flanders,East Flanders,Gent,9000.0,3.7183493,51.053482,APARTMENT,APARTMENT,260000.0,1.0,56.0,SEMI_EQUIPPED,,,0,0.0,0,0.0,0.0,2.0,,AS_NEW,ELECTRIC,D,396.0,,,4642.86
https://www.immoweb.be/en/classified/apartment/for-sale/wilrijk%20%28antwerpen%29/2610/11166109,11166109.0,Flanders,Antwerp,Wilrijk (Antwerpen),2610.0,4.3895015,51.1725114,APARTMENT,APARTMENT,280000.0,3.0,139.0,unknown,0.0,,1,68.0,0,0.0,0.0,2.0,False,unknown,GAS,B,177.0,,1.0,2014.39
https://www.immoweb.be/en/classified/duplex/for-sale/heusden-zolder/3550/11171505,11171505.0,Flanders,Limburg,Heusden-Zolder,3550.0,5.3160152,51.022044,APARTMENT,DUPLEX,289800.0,2.0,113.0,HYPER_EQUIPPED,,,1,9.0,0,0.0,0.0,2.0,,AS_NEW,GAS,B,113.0,2.0,,2564.6
https://www.immoweb.be/en/classified/apartment/for-sale/turnhout/2300/11171490,11171490.0,Flanders,Antwerp,Turnhout,2300.0,4.9342305,51.3273369,APARTMENT,APARTMENT,310000.0,2.0,100.0,HYPER_EQUIPPED,1.0,,1,9.0,0,0.0,0.0,2.0,,AS_NEW,GAS,B,103.0,1.0,1.0,3100.0
https://www.immoweb.be/en/classified/apartment/for-sale/borgerhout/2140/11171485,11171485.0,Flanders,Antwerp,BORGERHOUT,2140.0,4.4502963,51.2131756,APARTMENT,APARTMENT,189000.0,2.0,66.0,SEMI_EQUIPPED,,,1,2.0,0,0.0,0.0,3.0,,GOOD,GAS,C,217.0,,,2863.64
https://www.immoweb.be/en/classified/apartment/for-sale/edegem/2650/11171484,11171484.0,Flanders,Antwerp,EDEGEM,2650.0,4.4358367,51.1554682,APARTMENT,APARTMENT,205000.0,2.0,88.0,SEMI_EQUIPPED,,,1,4.0,0,0.0,0.0,2.0,,TO_BE_DONE_UP,GAS,B,130.0,,1.0,2329.55
https://www.immoweb.be/en/classified/apartment/for-sale/anderlecht/1070/11171471,11171471.0,Brussels,Brussels,Anderlecht,1070.0,4.3005129,50.8357852,APARTMENT,APARTMENT,230000.0,2.0,103.0,unknown,,,0,0.0,0,0.0,0.0,2.0,,GOOD,GAS,E,246.0,,,2233.01
https://www.immoweb.be/en/classified/apartment/for-sale/waremme/4300/11174351,11174351.0,Wallonie,Liège,WAREMME,4300.0,5.2486357,50.6952775,APARTMENT,APARTMENT,165000.0,2.0,75.0,SEMI_EQUIPPED,0.0,,0,0.0,0,0.0,0.0,2.0,False,unknown,unknown,C,20907.0,1.0,,2200.0
https://www.immoweb.be/en/classified/apartment/for-sale/molenbeek-saint-jean/1080/11174334,11174334.0,Brussels,Brussels,MOLENBEEK-SAINT-JEAN,1080.0,4.3143416,50.8519234,APARTMENT,APARTMENT,212500.0,2.0,86.0,USA_SEMI_EQUIPPED,0.0,,1,14.0,0,0.0,0.0,2.0,False,GOOD,GAS,D,158.0,,,2470.93
https://www.immoweb.be/en/classified/flat-studio/for-sale/laeken/1020/11174323,11174323.0,Brussels,Brussels,Laeken,1020.0,4.3548064,50.898142,APARTMENT,FLAT_STUDIO,129000.0,0.0,41.0,unknown,0.0,,1,9.0,0,0.0,0.0,4.0,False,unknown,FUELOIL,G,426.0,,,3146.34
https://www.immoweb.be/en/classified/apartment/for-sale/borgerhout/2140/11174315,11174315.0,Flanders,Antwerp,BORGERHOUT,2140.0,4.4426315,51.2144997,APARTMENT,APARTMENT,199000.0,2.0,109.0,unknown,,,1,4.0,0,0.0,0.0,2.0,,TO_BE_DONE_UP,GAS,A,85.0,,,1825.69
https://www.immoweb.be/en/classified/apartment/for-sale/lebbeke/9280/11174311,11174311.0,Flanders,East Flanders,Lebbeke,9280.0,4.1380995,51.0070047,APARTMENT,APARTMENT,289000.0,2.0,93.0,INSTALLED,0.0,,1,0.0,0,0.0,0.0,2.0,,AS_NEW,GAS,C,263.0,,1.0,3107.53
https://www.immoweb.be/en/classified/apartment/for-sale/villers-la-ville/1495/11174300,11174300.0,Wallonie,Walloon Brabant,Villers-la-Ville,1495.0,,,APARTMENT,APARTMENT,410000.0,3.0,150.0,INSTALLED,,-1.0,1,50.0,1,600.0,0.0,2.0,,AS_NEW,GAS,B,100.0,2.0,,2733.33
https://www.immoweb.be/en/classified/apartment/for-sale/hasselt/3500/11174283,11174283.0,Flanders,Limburg,Hasselt,3500.0,5.3428964,50.9169052,APARTMENT,APARTMENT,165000.0,1.0,47.0,unknown,,,0,0.0,0,0.0,0.0,2.0,,TO_BE_DONE_UP,unknown,D,364.0,,,3510.64
https://www.immoweb.be/en/classified/apartment/for-sale/wingene/8750/11174270,11174270.0,Flanders,West Flanders,Wingene,8750.0,3.278695,51.0571315,APARTMENT,APARTMENT,224000.0,2.0,70.0,unknown,0.0,,1,0.0,0,0.0,0.0,3.0,False,unknown,GAS,B,172.0,1.0,,3200.0
https://www.immoweb.be/en/classified/penthouse/for-sale/oostduinkerke/8670/11174253,11174253.0,Flanders,West Flanders,Oostduinkerke,8670.0,2.6981181,51.1412695,APARTMENT,PENTHOUSE,1950000.0,4.0,185.0,unknown,,,1,45.0,0,0.0,0.0,2.0,,GOOD,ELECTRIC,C,273.0,,1.0,10540.54
https://www.immoweb.be/en/classified/apartment/for-sale/harelbeke/8530/11174252,11174252.0,Flanders,West Flanders,Harelbeke,8530.0,,,APARTMENT,APARTMENT,165000.0,3.0,113.0,unknown,,,0,0.0,1,2.0,0.0,2.0,,GOOD,FUELOIL,B,189.0,,,1460.18
https://www.immoweb.be/en/classified/apartment/for-sale/antwerpen/2000/11172358,11172358.0,Flanders,Antwerp,ANTWERPEN,2000.0,4.4027614,51.2154335,APARTMENT,APARTMENT,595000.0,1.0,193.0,INSTALLED,,,0,0.0,0,0.0,0.0,2.0,,GOOD,GAS,C,243.0,,,3082.9
https://www.immoweb.be/en/classified/apartment/for-sale/zandhoven/2240/9982584,9982584.0,Flanders,Antwerp,Zandhoven,2240.0,4.6589479,51.2145828,APARTMENT,APARTMENT,219000.0,2.0,80.0,unknown,,-1.0,1,22.0,0,0.0,0.0,3.0,,GOOD,GAS,C,284.0,,,2737.5
https://www.immoweb.be/en/classified/apartment/for-sale/bruxelles/1000/11172338,11172338.0,Brussels,Brussels,Bruxelles,1000.0,4.3491982,50.857493,APARTMENT,APARTMENT,265000.0,2.0,86.0,USA_INSTALLED,0.0,,0,0.0,0,0.0,0.0,2.0,False,GOOD,GAS,D,174.0,,,3081.4
https://www.immoweb.be/en/classified/apartment/for-sale/etterbeek/1040/11172328,11172328.0,Brussels,Brussels,Etterbeek,1040.0,4.3849586,50.8334051,APARTMENT,APARTMENT,280000.0,2.0,87.0,unknown,0.0,,1,8.0,0,0.0,0.0,2.0,False,GOOD,GAS,B,89.0,,,3218.39
https://www.immoweb.be/en/classified/apartment/for-sale/zelzate/9060/11172322,11172322.0,Flanders,East Flanders,Zelzate,9060.0,3.8065121,51.2011989,APARTMENT,APARTMENT,259000.0,3.0,154.0,INSTALLED,,-1.0,0,0.0,0,0.0,0.0,2.0,,JUST_RENOVATED,GAS,B,199.0,1.0,1.0,1681.82
https://www.immoweb.be/en/classified/apartment/for-sale/borgloon/3840/11172319,11172319.0,Flanders,Limburg,Borgloon,3840.0,5.2861295,50.806834,APARTMENT,APARTMENT,199000.0,2.0,109.0,SEMI_EQUIPPED,,-1.0,0,0.0,0,0.0,0.0,3.0,,TO_BE_DONE_UP,GAS,D,327.0,,,1825.69
https://www.immoweb.be/en/classified/apartment/for-sale/braine-l%27alleud/1420/11172288,11172288.0,Wallonie,Walloon Brabant,Braine-l'Alleud,1420.0,4.3551238,50.7115297,APARTMENT,APARTMENT,496150.0,3.0,141.0,USA_HYPER_EQUIPPED,0.0,,1,16.0,0,0.0,0.0,3.0,False,AS_NEW,GAS,A,58.0,1.0,,3518.79
https://www.immoweb.be/en/classified/apartment/for-sale/molenbeek-saint-jean/1080/11172285,11172285.0,Brussels,Brussels,Molenbeek-saint-jean,1080.0,4.3016979,50.8506778,APARTMENT,APARTMENT,299000.0,2.0,95.0,USA_HYPER_EQUIPPED,0.0,,1,13.0,0,0.0,0.0,2.0,False,AS_NEW,ELECTRIC,E,225.0,,1.0,3147.37
https://www.immoweb.be/en/classified/apartment/for-sale/oostende/8400/11172273,11172273.0,Flanders,West Flanders,Oostende,8400.0,2.9173049,51.2256523,APARTMENT,APARTMENT,189000.0,2.0,91.0,unknown,,,0,0.0,0,0.0,0.0,2.0,,GOOD,GAS,B,115.0,,,2076.92
https://www.immoweb.be/en/classified/apartment/for-sale/rekkem/8930/11172271,11172271.0,Flanders,West Flanders,Rekkem,8930.0,,,APARTMENT,APARTMENT,189000.0,2.0,72.0,INSTALLED,0.0,,1,14.0,0,0.0,0.0,3.0,False,GOOD,GAS,B,102.0,,,2625.0
https://www.immoweb.be/en/classified/apartment/for-sale/schilde/2970/11172270,11172270.0,Flanders,Antwerp,Schilde,2970.0,4.5858019,51.2369835,APARTMENT,APARTMENT,275000.0,1.0,72.0,INSTALLED,,-1.0,1,20.0,0,0.0,0.0,2.0,,GOOD,GAS,B,167.0,,1.0,3819.44
https://www.immoweb.be/en/classified/penthouse/for-sale/uccle/1180/11172262,11172262.0,Brussels,Brussels,Uccle,1180.0,4.3576337,50.8040329,APARTMENT,PENTHOUSE,299000.0,2.0,90.0,INSTALLED,0.0,,1,6.0,0,0.0,0.0,2.0,False,TO_BE_DONE_UP,GAS,G,1019.0,1.0,1.0,3322.22
https://www.immoweb.be/en/classified/apartment/for-sale/paal/3583/10860510,10860510.0,Flanders,Limburg,Paal,3583.0,5.1727931,51.0402363,APARTMENT,APARTMENT,170000.0,2.0,82.0,SEMI_EQUIPPED,,-1.0,0,0.0,0,0.0,0.0,2.0,,TO_BE_DONE_UP,GAS,C,205.0,,,2073.17
https://www.immoweb.be/en/classified/flat-studio/for-sale/louvain-la-neuve/1348/10664645,10664645.0,Wallonie,Walloon Brabant,Louvain-La-Neuve,1348.0,4.6091203,50.6712121,APARTMENT,FLAT_STUDIO,115000.0,1.0,21.0,unknown,,-1.0,0,0.0,0,0.0,0.0,2.0,,unknown,unknown,D,312.0,,,5476.19
https://www.immoweb.be/en/classified/apartment/for-sale/boom/2850/11172527,11172527.0,Flanders,Antwerp,Boom,2850.0,4.3651949,51.0878535,APARTMENT,APARTMENT,225000.0,2.0,88.0,HYPER_EQUIPPED,,,0,0.0,0,0.0,0.0,2.0,,unknown,GAS,B,193.0,,,2556.82
https://www.immoweb.be/en/classified/apartment/for-sale/sint-jans-molenbeek/1080/11170902,11170902.0,Brussels,Brussels,Sint-Jans-Molenbeek,1080.0,4.3153788,50.8496869,APARTMENT,APARTMENT,299000.0,3.0,121.0,unknown,,,0,0.0,0,0.0,0.0,2.0,,unknown,GAS,C,136.0,,,2471.07
https://www.immoweb.be/en/classified/apartment/for-sale/molenbeek-saint-jean/1080/11119682,11119682.0,Brussels,Brussels,Molenbeek-Saint-Jean,1080.0,4.3077327,50.85418,APARTMENT,APARTMENT,355000.0,2.0,125.0,INSTALLED,,,1,32.0,0,0.0,0.0,2.0,False,GOOD,unknown,C,147.0,,,2840.0
https://www.immoweb.be/en/classified/apartment/for-sale/knokke-zoute/8300/11170899,11170899.0,Flanders,West Flanders,Knokke-Zoute,8300.0,3.3044825,51.3559359,APARTMENT,APARTMENT,1545000.0,3.0,104.0,HYPER_EQUIPPED,,,0,0.0,0,0.0,0.0,2.0,,unknown,GAS,A,93.0,,,14855.77
https://www.immoweb.be/en/classified/penthouse/for-sale/mouscron/7700/11170895,11170895.0,Wallonie,Hainaut,Mouscron,7700.0,3.2164408,50.7438149,APARTMENT,PENTHOUSE,245000.0,3.0,97.0,unknown,,-1.0,1,50.0,0,0.0,0.0,2.0,,AS_NEW,GAS,B,170.0,,1.0,2525.77
https://www.immoweb.be/en/classified/apartment/for-sale/mouscron/7700/11170892,11170892.0,Wallonie,Hainaut,Mouscron,7700.0,,,APARTMENT,APARTMENT,185000.0,2.0,85.0,INSTALLED,,-1.0,0,0.0,0,0.0,0.0,2.0,,AS_NEW,GAS,C,188.0,1.0,,2176.47
https://www.immoweb.be/en/classified/apartment/for-sale/mouscron/7700/11170891,11170891.0,Wallonie,Hainaut,Mouscron,7700.0,3.2164408,50.7438149,APARTMENT,APARTMENT,245000.0,3.0,97.0,unknown,,-1.0,1,50.0,0,0.0,0.0,2.0,,AS_NEW,GAS,B,170.0,,1.0,2525.77
https://www.immoweb.be/en/classified/duplex/for-sale/braine-l%27alleud/1420/11170887,11170887.0,Wallonie,Walloon Brabant,Braine-l'Alleud,1420.0,,,APARTMENT,DUPLEX,475000.0,3.0,167.0,USA_HYPER_EQUIPPED,0.0,,1,30.0,0,0.0,0.0,2.0,False,AS_NEW,GAS,B,136.0,2.0,,2844.31
https://www.immoweb.be/en/classified/apartment/for-sale/knokke-heist/8300/11170886,11170886.0,Flanders,West Flanders,Knokke-Heist,8300.0,3.2863236,51.3484005,APARTMENT,APARTMENT,469000.0,2.0,74.0,unknown,,,0,0.0,0,0.0,0.0,2.0,,unknown,unknown,B,116.0,,,6337.84
https://www.immoweb.be/en/classified/apartment/for-sale/knokke-heist/8300/11170884,11170884.0,Flanders,West Flanders,Knokke-Heist,8300.0,3.2416819,51.3414988,APARTMENT,APARTMENT,970000.0,3.0,111.0,INSTALLED,,,1,14.0,0,0.0,0.0,1.0,,unknown,GAS,A,87.0,,1.0,8738.74
https://www.immoweb.be/en/classified/apartment/for-sale/londerzeel/1840/11170868,11170868.0,Flanders,Flemish Brabant,Londerzeel,1840.0,,,APARTMENT,APARTMENT,235000.0,2.0,89.0,unknown,,,0,0.0,0,0.0,0.0,2.0,,unknown,GAS,C,202.0,1.0,,2640.45
https://www.immoweb.be/en/classified/apartment/for-sale/ieper/8900/11170865,11170865.0,Flanders,West Flanders,Ieper,8900.0,2.8888632,50.8413588,APARTMENT,APARTMENT,340000.0,2.0,105.0,INSTALLED,,,0,0.0,0,0.0,0.0,2.0,,GOOD,ELECTRIC,A,38.0,,1.0,3238.1
https://www.immoweb.be/en/classified/apartment/for-sale/de%20haan/8420/11164953,11164953.0,Flanders,West Flanders,De Haan,8420.0,3.1880923,51.3284821,APARTMENT,APARTMENT,298000.0,2.0,58.0,unknown,,,0,0.0,0,0.0,0.0,2.0,,GOOD,GAS,A,81.0,,,5137.93
https://www.immoweb.be/en/classified/apartment/for-sale/schaerbeek/1030/11164950,11164950.0,Brussels,Brussels,SCHAERBEEK,1030.0,4.3721772,50.8589409,APARTMENT,APARTMENT,150000.0,2.0,80.0,USA_INSTALLED,0.0,,0,0.0,0,0.0,0.0,2.0,False,unknown,unknown,G,565.0,,,1875.0
https://www.immoweb.be/en/classified/apartment/for-sale/wenduine/8420/11164948,11164948.0,Flanders,West Flanders,Wenduine,8420.0,3.0874114,51.3026657,APARTMENT,APARTMENT,145000.0,0.0,34.0,unknown,0.0,,1,0.0,0,0.0,0.0,2.0,False,unknown,ELECTRIC,C,273.0,,,4264.71
https://www.immoweb.be/en/classified/apartment/for-sale/uccle/1180/11164947,11164947.0,Brussels,Brussels,Uccle,1180.0,4.3622002,50.8132441,APARTMENT,APARTMENT,545000.0,2.0,137.0,SEMI_EQUIPPED,0.0,,0,0.0,0,0.0,0.0,2.0,False,AS_NEW,GAS,D,175.0,,,3978.1
https://www.immoweb.be/en/classified/apartment/for-sale/eeklo/9900/11164935,11164935.0,Flanders,East Flanders,Eeklo,9900.0,3.555564,51.1842297,APARTMENT,APARTMENT,234500.0,1.0,52.0,unknown,,,1,18.0,1,3000.0,0.0,4.0,,unknown,GAS,B,135.0,,1.0,4509.62
https://www.immoweb.be/en/classified/apartment/for-sale/beernem/8730/11164923,11164923.0,Flanders,West Flanders,Beernem,8730.0,3.3311844,51.1281786,APARTMENT,APARTMENT,389000.0,3.0,175.0,HYPER_EQUIPPED,,,1,15.0,0,0.0,0.0,3.0,,unknown,GAS,B,106.0,,,2222.86
https://www.immoweb.be/en/classified/duplex/for-sale/dinant/5500/11164916,11164916.0,Wallonie,Namur,Dinant,5500.0,4.9208405,50.2655677,APARTMENT,DUPLEX,155000.0,2.0,91.0,SEMI_EQUIPPED,0.0,,0,0.0,0,0.0,0.0,2.0,False,GOOD,GAS,D,317.0,,,1703.3
https://www.immoweb.be/en/classified/duplex/for-sale/dinant/5500/11164915,11164915.0,Wallonie,Namur,Dinant,5500.0,4.9210111,50.2655968,APARTMENT,DUPLEX,155000.0,2.0,91.0,unknown,0.0,,0,0.0,0,0.0,0.0,3.0,False,GOOD,GAS,C,184.0,,,1703.3
https://www.immoweb.be/en/classified/apartment/for-sale/boom/2850/11164912,11164912.0,Flanders,Antwerp,Boom,2850.0,4.365051,51.0885541,APARTMENT,APARTMENT,196000.0,2.0,80.0,HYPER_EQUIPPED,0.0,,1,10.0,0,0.0,0.0,2.0,False,GOOD,FUELOIL,C,284.0,,,2450.0
https://www.immoweb.be/en/classified/apartment/for-sale/geraardsbergen/9500/11164197,11164197.0,Flanders,East Flanders,Geraardsbergen,9500.0,3.8775412,50.7692382,APARTMENT,APARTMENT,185000.0,1.0,50.0,unknown,,,0,0.0,0,0.0,0.0,2.0,,GOOD,unknown,B,105.0,,,3700.0
https://www.immoweb.be/en/classified/apartment/for-sale/oostende/8400/11164196,11164196.0,Flanders,West Flanders,Oostende,8400.0,2.8756579,51.2097829,APARTMENT,APARTMENT,219000.0,1.0,55.0,unknown,,,0,0.0,0,0.0,0.0,3.0,,GOOD,unknown,B,103.0,,,3981.82
https://www.immoweb.be/en/classified/apartment/for-sale/bouge/5004/11164195,11164195.0,Wallonie,Namur,Bouge,5004.0,,,APARTMENT,APARTMENT,279000.0,3.0,111.0,SEMI_EQUIPPED,,-1.0,0,0.0,0,0.0,0.0,4.0,,GOOD,unknown,C,199.0,,1.0,2513.51
https://www.immoweb.be/en/classified/apartment/for-sale/ruisbroek%20%282870%29/2870/11164179,11164179.0,Flanders,Antwerp,Ruisbroek (2870),2870.0,4.3362639,51.0766374,APARTMENT,APARTMENT,319000.0,2.0,88.0,unknown,,,0,0.0,0,0.0,0.0,2.0,,unknown,unknown,A,49.0,,,3625.0
https://www.immoweb.be/en/classified/apartment/for-sale/ixelles/1050/11173776,11173776.0,Brussels,Brussels,Ixelles,1050.0,4.3641991,50.8327815,APARTMENT,APARTMENT,325000.0,1.0,60.0,USA_HYPER_EQUIPPED,0.0,,0,0.0,1,81.0,0.0,4.0,False,GOOD,GAS,G,753.0,,,5416.67
https://www.immoweb.be/en/classified/apartment/for-sale/halle/1500/11173769,11173769.0,Flanders,Flemish Brabant,Halle,1500.0,4.2363056,50.7264398,APARTMENT,APARTMENT,260000.0,2.0,93.0,INSTALLED,,-1.0,1,0.0,0,0.0,0.0,2.0,,GOOD,GAS,A,90.0,,1.0,2795.7
https://www.immoweb.be/en/classified/duplex/for-sale/jette/1090/11173767,11173767.0,Brussels,Brussels,Jette,1090.0,4.3337368,50.869199,APARTMENT,DUPLEX,535000.0,3.0,161.0,USA_HYPER_EQUIPPED,,,1,0.0,0,0.0,0.0,3.0,False,AS_NEW,unknown,A,20.0,,,3322.98
https://www.immoweb.be/en/classified/apartment/for-sale/sint-pieters-leeuw/1600/11173766,11173766.0,Flanders,Flemish Brabant,SINT-PIETERS-LEEUW,1600.0,4.2879498,50.8013064,APARTMENT,APARTMENT,239000.0,1.0,65.0,INSTALLED,,-1.0,1,0.0,0,0.0,0.0,2.0,,GOOD,GAS,A,69.0,,,3676.92
https://www.immoweb.be/en/classified/apartment/for-sale/dinant/5500/11173755,11173755.0,Wallonie,Namur,Dinant,5500.0,4.9101501,50.262366,APARTMENT,APARTMENT,215000.0,2.0,92.0,USA_INSTALLED,0.0,,1,0.0,0,0.0,0.0,3.0,,GOOD,GAS,B,159.0,,1.0,2336.96
https://www.immoweb.be/en/classified/apartment/for-sale/wilrijk/2610/11173751,11173751.0,Flanders,Antwerp,Wilrijk,2610.0,4.4233239,51.1795834,APARTMENT,APARTMENT,375000.0,3.0,126.0,INSTALLED,,,1,19.0,1,140.0,0.0,2.0,,GOOD,unknown,E,416.0,,1.0,2976.19
https://www.immoweb.be/en/classified/apartment/for-sale/li%C3%A8ge/4000/11173747,11173747.0,Wallonie,Liège,Liège,4000.0,,,APARTMENT,APARTMENT,210000.0,2.0,112.0,INSTALLED,0.0,,0,0.0,0,0.0,0.0,2.0,False,GOOD,GAS,C,227.0,,,1875.0
https://www.immoweb.be/en/classified/duplex/for-sale/uccle/1180/11173733,11173733.0,Brussels,Brussels,Uccle,1180.0,,,APARTMENT,DUPLEX,465000.0,2.0,156.0,USA_HYPER_EQUIPPED,0.0,,1,25.0,0,0.0,0.0,2.0,False,GOOD,GAS,F,345.0,,,2980.77
https://www.immoweb.be/en/classified/apartment/for-sale/li%C3%A8ge/4020/11173732,11173732.0,Wallonie,Liège,Liège,4020.0,5.588475,50.6430993,APARTMENT,APARTMENT,169000.0,2.0,80.0,INSTALLED,0.0,,0,0.0,0,0.0,0.0,2.0,False,GOOD,unknown,C,180.0,,,2112.5
https://www.immoweb.be/en/classified/apartment/for-sale/woluwe-saint-lambert/1200/11173731,11173731.0,Brussels,Brussels,Woluwe-Saint-Lambert,1200.0,,,APARTMENT,APARTMENT,630000.0,3.0,135.0,USA_HYPER_EQUIPPED,0.0,,1,12.0,0,0.0,0.0,2.0,False,AS_NEW,GAS,C,110.0,2.0,,4666.67
https://www.immoweb.be/en/classified/apartment/for-sale/antwerp/2000/11173728,11173728.0,Flanders,Antwerp,Antwerp,2000.0,4.4001986,51.2197731,APARTMENT,APARTMENT,309000.0,2.0,60.0,INSTALLED,1.0,,0,0.0,0,0.0,0.0,2.0,False,unknown,GAS,A,99.0,,,5150.0
https://www.immoweb.be/en/classified/apartment/for-sale/antwerp/2000/11173727,11173727.0,Flanders,Antwerp,Antwerp,2000.0,4.4052255,51.2262321,APARTMENT,APARTMENT,549000.0,2.0,132.0,unknown,0.0,,1,0.0,0,0.0,0.0,2.0,,unknown,GAS,B,198.0,,3.0,4159.09
https://www.immoweb.be/en/classified/apartment/for-sale/antwerpen%20deurne/2100/11173722,11173722.0,Flanders,Antwerp,Antwerpen Deurne,2100.0,4.4639884,51.2339628,APARTMENT,APARTMENT,174000.0,2.0,76.0,unknown,0.0,,1,10.0,0,0.0,0.0,2.0,,GOOD,unknown,B,165.0,,,2289.47
https://www.immoweb.be/en/classified/apartment/for-sale/antwerpen%20deurne/2100/11173720,11173720.0,Flanders,Antwerp,Antwerpen Deurne,2100.0,4.4615743,51.2110997,APARTMENT,APARTMENT,279000.0,3.0,110.0,unknown,,,1,13.0,0,0.0,0.0,2.0,,unknown,FUELOIL,B,195.0,,1.0,2536.36
https://www.immoweb.be/en/classified/apartment/for-sale/antwerpen%20hoboken/2660/11173719,11173719.0,Flanders,Antwerp,Antwerpen Hoboken,2660.0,4.3473057,51.1803482,APARTMENT,APARTMENT,259000.0,2.0,76.0,INSTALLED,0.0,,1,6.0,0,0.0,0.0,2.0,False,unknown,GAS,B,103.44,1.0,,3407.89
https://www.immoweb.be/en/classified/ground-floor/for-sale/sint-pieters-leeuw/1600/11173714,11173714.0,Flanders,Flemish Brabant,Sint-Pieters-Leeuw,1600.0,4.2782091,50.7907154,APARTMENT,GROUND_FLOOR,230000.0,2.0,75.0,USA_INSTALLED,,,1,15.0,0,0.0,0.0,2.0,,GOOD,GAS,C,239.0,1.0,1.0,3066.67
https://www.immoweb.be/en/classified/duplex/for-sale/hingeon/5380/11163125,11163125.0,Wallonie,Namur,HINGEON,5380.0,5.0032901,50.5252773,APARTMENT,DUPLEX,209000.0,2.0,88.0,INSTALLED,,-1.0,0,0.0,0,0.0,0.0,4.0,,GOOD,FUELOIL,B,112.0,1.0,,2375.0
https://www.immoweb.be/en/classified/loft/for-sale/li%C3%A8ge/4000/11110174,11110174.0,Wallonie,Liège,Liège,4000.0,,,APARTMENT,LOFT,285000.0,2.0,150.0,SEMI_EQUIPPED,0.0,,0,0.0,0,0.0,0.0,2.0,False,AS_NEW,unknown,E,373.0,1.0,,1900.0
https://www.immoweb.be/en/classified/apartment/for-sale/andenne/5300/11163122,11163122.0,Wallonie,Namur,Andenne,5300.0,5.0949698,50.4963273,APARTMENT,APARTMENT,110000.0,1.0,53.0,unknown,0.0,,0,0.0,0,0.0,0.0,2.0,False,unknown,GAS,F,475.0,,,2075.47
https://www.immoweb.be/en/classified/flat-studio/for-sale/gent/9000/11163107,11163107.0,Flanders,East Flanders,Gent,9000.0,3.7024814,51.054931,APARTMENT,FLAT_STUDIO,195000.0,1.0,44.0,USA_HYPER_EQUIPPED,0.0,,1,9.0,0,0.0,0.0,2.0,False,AS_NEW,GAS,B,122.0,,,4431.82
https://www.immoweb.be/en/classified/apartment/for-sale/borgerhout/2140/11163101,11163101.0,Flanders,Antwerp,BORGERHOUT,2140.0,4.4484152,51.2023014,APARTMENT,APARTMENT,189000.0,1.0,48.0,INSTALLED,,,0,0.0,0,0.0,0.0,2.0,,JUST_RENOVATED,GAS,C,283.0,,,3937.5
https://www.immoweb.be/en/classified/flat-studio/for-sale/antwerpen/2018/11163100,11163100.0,Flanders,Antwerp,ANTWERPEN,2018.0,4.4193195,51.2082366,APARTMENT,FLAT_STUDIO,139000.0,1.0,29.0,INSTALLED,,,0,0.0,0,0.0,0.0,2.0,,JUST_RENOVATED,GAS,C,271.0,,,4793.1
https://www.immoweb.be/en/classified/apartment/for-sale/antwerpen/2600/11163099,11163099.0,Flanders,Antwerp,ANTWERPEN,2600.0,4.4308904,51.1822685,APARTMENT,APARTMENT,324900.0,2.0,97.0,HYPER_EQUIPPED,,,1,0.0,0,0.0,0.0,2.0,,AS_NEW,GAS,B,166.0,,,3349.48
https://www.immoweb.be/en/classified/apartment/for-sale/sint-pieters-leeuw/1600/11163075,11163075.0,Flanders,Flemish Brabant,SINT-PIETERS-LEEUW,1600.0,,,APARTMENT,APARTMENT,295000.0,2.0,85.0,unknown,,-1.0,1,10.0,0,0.0,0.0,4.0,,unknown,unknown,C,215.0,,,3470.59
https://www.immoweb.be/en/classified/ground-floor/for-sale/chapelle-lez-herlaimont/7160/11163069,11163069.0,Wallonie,Hainaut,Chapelle-lez-Herlaimont,7160.0,,,APARTMENT,GROUND_FLOOR,179000.0,2.0,100.0,USA_INSTALLED,,,1,0.0,0,0.0,0.0,2.0,,AS_NEW,ELECTRIC,C,228.0,,1.0,1790.0
https://www.immoweb.be/en/classified/apartment/for-sale/anderlecht/1070/11172143,11172143.0,Brussels,Brussels,Anderlecht,1070.0,4.2922863,50.8330346,APARTMENT,APARTMENT,249000.0,2.0,96.0,INSTALLED,,,1,4.0,0,0.0,0.0,2.0,False,TO_BE_DONE_UP,GAS,D,188.0,,,2593.75
https://www.immoweb.be/en/classified/apartment/for-sale/verviers/4800/11172119,11172119.0,Wallonie,Liège,Verviers,4800.0,5.85883,50.5909855,APARTMENT,APARTMENT,30000.0,2.0,96.0,unknown,0.0,,0,0.0,0,0.0,0.0,2.0,False,GOOD,ELECTRIC,D,262.0,,,312.5
https://www.immoweb.be/en/classified/apartment/for-sale/schaerbeek/1030/11172108,11172108.0,Brussels,Brussels,Schaerbeek,1030.0,4.3804114,50.8750484,APARTMENT,APARTMENT,139000.0,1.0,44.0,INSTALLED,0.0,,0,0.0,0,0.0,0.0,2.0,False,GOOD,GAS,E,250.0,,,3159.09
https://www.immoweb.be/en/classified/ground-floor/for-sale/antwerpen/2180/11172083,11172083.0,Flanders,Antwerp,Antwerpen,2180.0,4.4414546,51.2899212,APARTMENT,GROUND_FLOOR,179000.0,1.0,62.0,unknown,,,1,0.0,0,0.0,0.0,2.0,,GOOD,GAS,F,701.0,,1.0,2887.1
https://www.immoweb.be/en/classified/ground-floor/for-sale/deurne%20%28antwerpen%29/2100/11172079,11172079.0,Flanders,Antwerp,Deurne (Antwerpen),2100.0,4.4720116,51.2270915,APARTMENT,GROUND_FLOOR,149000.0,2.0,74.0,unknown,0.0,,0,0.0,0,0.0,0.0,2.0,False,unknown,GAS,D,358.0,,,2013.51
https://www.immoweb.be/en/classified/apartment/for-sale/oudenaarde/9700/11102266,11102266.0,Flanders,East Flanders,Oudenaarde,9700.0,3.6116715,50.8438979,APARTMENT,APARTMENT,270000.0,2.0,72.0,HYPER_EQUIPPED,0.0,,1,20.0,0,0.0,0.0,2.0,False,unknown,GAS,A,79.0,,,3750.0
https://www.immoweb.be/en/classified/apartment/for-sale/uccle/1180/11172061,11172061.0,Brussels,Brussels,Uccle,1180.0,,,APARTMENT,APARTMENT,395000.0,2.0,100.0,HYPER_EQUIPPED,0.0,,1,10.0,0,0.0,0.0,2.0,True,AS_NEW,GAS,D,186.0,1.0,,3950.0
https://www.immoweb.be/en/classified/apartment/for-sale/ixelles/1050/11171286,11171286.0,Brussels,Brussels,Ixelles,1050.0,4.3838828,50.8185701,APARTMENT,APARTMENT,275000.0,1.0,60.0,unknown,,-1.0,0,0.0,0,0.0,0.0,2.0,,TO_BE_DONE_UP,unknown,D,155.0,,,4583.33
https://www.immoweb.be/en/classified/apartment/for-sale/ixelles/1050/11171285,11171285.0,Brussels,Brussels,Ixelles,1050.0,4.3838828,50.8185701,APARTMENT,APARTMENT,275000.0,1.0,60.0,unknown,,-1.0,0,0.0,0,0.0,0.0,2.0,,TO_BE_DONE_UP,unknown,D,158.0,,,4583.33
https://www.immoweb.be/en/classified/apartment/for-sale/ixelles/1050/11171284,11171284.0,Brussels,Brussels,Ixelles,1050.0,4.3838131,50.8185931,APARTMENT,APARTMENT,375000.0,2.0,110.0,INSTALLED,,-1.0,0,0.0,0,0.0,0.0,2.0,,TO_BE_DONE_UP,GAS,E,234.0,,,3409.09
https://www.immoweb.be/en/classified/duplex/for-sale/knokke/8300/11171254,11171254.0,Flanders,West Flanders,Knokke,8300.0,3.2918885,51.3406461,APARTMENT,DUPLEX,695000.0,2.0,118.0,HYPER_EQUIPPED,,,0,0.0,0,0.0,0.0,2.0,,unknown,GAS,A,1.0,,,5889.83
https://www.immoweb.be/en/classified/apartment/for-sale/wavre/1300/11171248,11171248.0,Wallonie,Walloon Brabant,Wavre,1300.0,4.6106532,50.718422,APARTMENT,APARTMENT,160000.0,1.0,50.0,INSTALLED,,-1.0,0,0.0,0,0.0,0.0,4.0,,GOOD,GAS,E,399.0,,,3200.0
https://www.immoweb.be/en/classified/ground-floor/for-sale/wavre/1300/11171247,11171247.0,Wallonie,Walloon Brabant,Wavre,1300.0,4.6106532,50.718422,APARTMENT,GROUND_FLOOR,175000.0,1.0,50.0,INSTALLED,,-1.0,1,25.0,0,0.0,0.0,4.0,,GOOD,GAS,G,665.0,,,3500.0
https://www.immoweb.be/en/classified/apartment/for-sale/herenthout/2270/10830989,10830989.0,Flanders,Antwerp,Herenthout,2270.0,4.7574361,51.1389019,APARTMENT,APARTMENT,265000.0,2.0,82.0,HYPER_EQUIPPED,,,1,7.0,0,0.0,0.0,2.0,,unknown,GAS,A,96.0,1.0,,3231.71
https://www.immoweb.be/en/classified/apartment/for-sale/brussels/1000/11165557,11165557.0,Brussels,Brussels,Brussels,1000.0,4.3651241,50.8267321,APARTMENT,APARTMENT,1190000.0,3.0,292.0,HYPER_EQUIPPED,0.0,,0,0.0,0,0.0,0.0,3.0,False,AS_NEW,FUELOIL,E,218.0,2.0,2.0,4075.34
https://www.immoweb.be/en/classified/flat-studio/for-sale/knokke/8300/11165530,11165530.0,Flanders,West Flanders,Knokke,8300.0,3.2888987,51.3485084,APARTMENT,FLAT_STUDIO,329000.0,1.0,42.0,INSTALLED,,,0,0.0,0,0.0,0.0,2.0,,unknown,GAS,A,74.0,,,7833.33
https://www.immoweb.be/en/classified/apartment/for-sale/westende/8434/11165529,11165529.0,Flanders,West Flanders,Westende,8434.0,2.7647116,51.1618587,APARTMENT,APARTMENT,322000.0,2.0,108.0,unknown,,,0,0.0,0,0.0,0.0,2.0,,unknown,GAS,B,140.0,,,2981.48
https://www.immoweb.be/en/classified/apartment/for-sale/blankenberge/8370/11165525,11165525.0,Flanders,West Flanders,Blankenberge,8370.0,3.1382229,51.3188866,APARTMENT,APARTMENT,380000.0,3.0,99.0,unknown,,,0,0.0,0,0.0,0.0,2.0,,unknown,unknown,B,142.0,,,3838.38
https://www.immoweb.be/en/classified/apartment/for-sale/knokke-zoute/8300/11165521,11165521.0,Flanders,West Flanders,Knokke-Zoute,8300.0,3.2852916,51.3505572,APARTMENT,APARTMENT,399000.0,1.0,46.0,HYPER_EQUIPPED,,,0,0.0,0,0.0,0.0,2.0,,unknown,ELECTRIC,C,241.0,,,8673.91
https://www.immoweb.be/en/classified/apartment/for-sale/nieuwpoort/8620/11165504,11165504.0,Flanders,West Flanders,Nieuwpoort,8620.0,,,APARTMENT,APARTMENT,189500.0,1.0,52.0,INSTALLED,,,0,0.0,0,0.0,0.0,2.0,,unknown,ELECTRIC,D,335.0,,,3644.23
https://www.immoweb.be/en/classified/duplex/for-sale/lokeren%20eksaarde/9160/11173513,11173513.0,Flanders,East Flanders,Lokeren Eksaarde,9160.0,3.9565218,51.1396731,APARTMENT,DUPLEX,359000.0,2.0,140.0,INSTALLED,,,1,12.0,0,0.0,0.0,2.0,,AS_NEW,GAS,B,108.0,,1.0,2564.29
https://www.immoweb.be/en/classified/apartment/for-sale/ixelles/1050/11173484,11173484.0,Brussels,Brussels,Ixelles,1050.0,4.3838131,50.8185931,APARTMENT,APARTMENT,295000.0,1.0,75.0,unknown,,-1.0,0,0.0,0,0.0,0.0,2.0,,TO_BE_DONE_UP,unknown,D,197.0,,,3933.33
https://www.immoweb.be/en/classified/apartment/for-sale/ixelles/1050/11173483,11173483.0,Brussels,Brussels,Ixelles,1050.0,4.3838131,50.8185931,APARTMENT,APARTMENT,275000.0,1.0,75.0,unknown,,-1.0,0,0.0,0,0.0,0.0,2.0,,TO_BE_DONE_UP,unknown,D,198.0,,,3666.67
https://www.immoweb.be/en/classified/apartment/for-sale/eeklo/9900/11173481,11173481.0,Flanders,East Flanders,Eeklo,9900.0,3.5835989,51.1780529,APARTMENT,APARTMENT,165000.0,2.0,92.0,INSTALLED,,,1,0.0,0,0.0,0.0,2.0,,GOOD,GAS,E,479.0,,1.0,1793.48
https://www.immoweb.be/en/classified/apartment/for-sale/forest/1190/11173474,11173474.0,Brussels,Brussels,Forest,1190.0,4.3452418,50.818712,APARTMENT,APARTMENT,279000.0,1.0,65.0,USA_HYPER_EQUIPPED,1.0,,0,0.0,0,0.0,0.0,2.0,False,AS_NEW,GAS,G,364.0,,,4292.31
https://www.immoweb.be/en/classified/apartment/for-sale/saint-gilles/1060/11174093,11174093.0,Brussels,Brussels,Saint-Gilles,1060.0,4.3515106,50.8277287,APARTMENT,APARTMENT,420000.0,2.0,120.0,unknown,0.0,,1,10.0,0,0.0,0.0,2.0,False,GOOD,unknown,D,196.0,1.0,,3500.0
https://www.immoweb.be/en/classified/apartment/for-sale/ixelles/1050/11174089,11174089.0,Brussels,Brussels,Ixelles,1050.0,,,APARTMENT,APARTMENT,995000.0,3.0,198.0,HYPER_EQUIPPED,0.0,,1,8.0,0,0.0,0.0,2.0,False,JUST_RENOVATED,GAS,C,125.0,1.0,1.0,5025.25
https://www.immoweb.be/en/classified/apartment/for-sale/berchem/2600/11174087,11174087.0,Flanders,Antwerp,Berchem,2600.0,4.4205965,51.1962537,APARTMENT,APARTMENT,229000.0,2.0,68.0,HYPER_EQUIPPED,0.0,,0,0.0,0,0.0,0.0,2.0,,JUST_RENOVATED,GAS,C,248.0,,,3367.65
https://www.immoweb.be/en/classified/apartment/for-sale/diest/3290/11174077,11174077.0,Flanders,Flemish Brabant,Diest,3290.0,5.0575999,50.9787213,APARTMENT,APARTMENT,220000.0,2.0,75.0,SEMI_EQUIPPED,,-1.0,0,0.0,0,0.0,0.0,2.0,,unknown,GAS,D,320.0,,,2933.33
https://www.immoweb.be/en/classified/apartment/for-sale/diest/3290/11174076,11174076.0,Flanders,Flemish Brabant,Diest,3290.0,5.0575999,50.9787213,APARTMENT,APARTMENT,220000.0,2.0,75.0,SEMI_EQUIPPED,,-1.0,0,0.0,0,0.0,0.0,2.0,,unknown,GAS,B,149.0,,,2933.33
https://www.immoweb.be/en/classified/apartment/for-sale/jette/1090/11174073,11174073.0,Brussels,Brussels,Jette,1090.0,4.3308848,50.8664587,APARTMENT,APARTMENT,199000.0,2.0,65.0,INSTALLED,,,0,0.0,0,0.0,0.0,2.0,,JUST_RENOVATED,GAS,D,198.0,,,3061.54
https://www.immoweb.be/en/classified/apartment/for-sale/uccle/1180/11174069,11174069.0,Brussels,Brussels,Uccle,1180.0,4.3272273,50.7826931,APARTMENT,APARTMENT,260000.0,2.0,71.0,USA_HYPER_EQUIPPED,0.0,,0,0.0,0,0.0,0.0,2.0,,AS_NEW,GAS,E,262.0,,,3661.97
https://www.immoweb.be/en/classified/apartment/for-sale/molenbeek-saint-jean/1080/11174068,11174068.0,Brussels,Brussels,Molenbeek-Saint-Jean,1080.0,4.3386928,50.8602404,APARTMENT,APARTMENT,290000.0,2.0,85.0,unknown,0.0,,0,0.0,0,0.0,0.0,2.0,,GOOD,unknown,E,272.0,,,3411.76
https://www.immoweb.be/en/classified/ground-floor/for-sale/molenbeek-saint-jean/1080/11174067,11174067.0,Brussels,Brussels,Molenbeek-Saint-Jean,1080.0,4.3386928,50.8602404,APARTMENT,GROUND_FLOOR,189000.0,1.0,60.0,unknown,0.0,,0,0.0,1,50.0,0.0,2.0,,AS_NEW,GAS,E,273.0,,,3150.0
https://www.immoweb.be/en/classified/service-flat/for-sale/zaventem/1930/11174064,11174064.0,Flanders,Flemish Brabant,Zaventem,1930.0,4.4814933,50.8819497,APARTMENT,SERVICE_FLAT,228000.0,1.0,58.0,unknown,0.0,,1,0.0,0,0.0,0.0,4.0,,AS_NEW,unknown,B,116.0,1.0,1.0,3931.03
https://www.immoweb.be/en/classified/apartment/for-sale/dilbeek/1700/11174055,11174055.0,Flanders,Flemish Brabant,Dilbeek,1700.0,4.2614783,50.8612814,APARTMENT,APARTMENT,339000.0,1.0,73.0,INSTALLED,0.0,,1,5.0,0,0.0,0.0,2.0,False,AS_NEW,GAS,A,78.0,1.0,1.0,4643.84
https://www.immoweb.be/en/classified/apartment/for-sale/nivelles/1400/11174050,11174050.0,Wallonie,Walloon Brabant,Nivelles,1400.0,,,APARTMENT,APARTMENT,210000.0,2.0,75.0,INSTALLED,,,1,0.0,0,0.0,0.0,2.0,False,GOOD,unknown,D,268.0,,1.0,2800.0
https://www.immoweb.be/en/classified/apartment/for-sale/gent/9000/11168122,11168122.0,Flanders,East Flanders,Gent,9000.0,3.737284,51.0353869,APARTMENT,APARTMENT,265000.0,2.0,95.0,INSTALLED,,,0,0.0,0,0.0,0.0,2.0,,TO_BE_DONE_UP,GAS,B,114.0,,,2789.47
https://www.immoweb.be/en/classified/service-flat/for-sale/veurne/8630/10127753,10127753.0,Flanders,West Flanders,Veurne,8630.0,2.6696084,51.0695967,APARTMENT,SERVICE_FLAT,215000.0,1.0,52.0,INSTALLED,,,1,12.0,0,0.0,0.0,2.0,,GOOD,unknown,A,91.0,,,4134.62
https://www.immoweb.be/en/classified/apartment/for-sale/blankenberge/8370/11168095,11168095.0,Flanders,West Flanders,Blankenberge,8370.0,3.1391912,51.3183382,APARTMENT,APARTMENT,239000.0,1.0,49.0,unknown,,,0,0.0,0,0.0,0.0,2.0,,unknown,unknown,B,115.0,,,4877.55
https://www.immoweb.be/en/classified/service-flat/for-sale/heverlee/3001/11168085,11168085.0,Flanders,Flemish Brabant,Heverlee,3001.0,4.6683256,50.8685707,APARTMENT,SERVICE_FLAT,145000.0,1.0,55.0,INSTALLED,,,1,4.0,0,0.0,0.0,2.0,,unknown,unknown,B,179.0,,,2636.36
https://www.immoweb.be/en/classified/apartment/for-sale/kortrijk/8500/10957419,10957419.0,Flanders,West Flanders,Kortrijk,8500.0,3.2830497,50.8163186,APARTMENT,APARTMENT,159000.0,2.0,75.0,unknown,,,0,0.0,0,0.0,0.0,2.0,,TO_BE_DONE_UP,unknown,D,354.0,1.0,,2120.0
https://www.immoweb.be/en/classified/apartment/for-sale/oostende/8400/11168075,11168075.0,Flanders,West Flanders,Oostende,8400.0,2.9087432,51.2235835,APARTMENT,APARTMENT,179000.0,2.0,85.0,unknown,,,1,5.0,0,0.0,0.0,2.0,,TO_BE_DONE_UP,unknown,D,340.0,,1.0,2105.88
https://www.immoweb.be/en/classified/apartment/for-sale/opwijk/1745/11168069,11168069.0,Flanders,Flemish Brabant,OPWIJK,1745.0,4.1928897,50.9680688,APARTMENT,APARTMENT,320000.0,2.0,82.0,INSTALLED,,,1,30.0,0,0.0,0.0,2.0,,unknown,unknown,A,20.0,,,3902.44
https://www.immoweb.be/en/classified/ground-floor/for-sale/opwijk/1745/11168068,11168068.0,Flanders,Flemish Brabant,OPWIJK,1745.0,4.1928897,50.9680688,APARTMENT,GROUND_FLOOR,385000.0,2.0,117.0,INSTALLED,,,1,22.0,1,26.0,0.0,2.0,,unknown,unknown,A,40.0,,,3290.6
https://www.immoweb.be/en/classified/apartment/for-sale/opwijk/1745/11168067,11168067.0,Flanders,Flemish Brabant,OPWIJK,1745.0,4.1928897,50.9680688,APARTMENT,APARTMENT,357000.0,2.0,109.0,INSTALLED,,,1,19.0,0,0.0,0.0,2.0,,unknown,unknown,A,40.0,,,3275.23
https://www.immoweb.be/en/classified/ground-floor/for-sale/opwijk/1745/11168064,11168064.0,Flanders,Flemish Brabant,OPWIJK,1745.0,4.192387,50.9691554,APARTMENT,GROUND_FLOOR,450000.0,3.0,152.0,INSTALLED,,,1,30.0,1,99.0,0.0,2.0,,unknown,unknown,A,15.0,,,2960.53
https://www.immoweb.be/en/classified/ground-floor/for-sale/opwijk/1745/11168062,11168062.0,Flanders,Flemish Brabant,OPWIJK,1745.0,4.1928897,50.9680688,APARTMENT,GROUND_FLOOR,288000.0,1.0,89.0,INSTALLED,,,1,18.0,1,22.0,0.0,2.0,,unknown,unknown,A,20.0,,,3235.96
https://www.immoweb.be/en/classified/apartment/for-sale/erembodegem/9320/11168061,11168061.0,Flanders,East Flanders,Erembodegem,9320.0,4.0569543,50.9213717,APARTMENT,APARTMENT,199000.0,1.0,60.0,INSTALLED,,,1,0.0,0,0.0,0.0,2.0,,unknown,GAS,B,101.0,,,3316.67
https://www.immoweb.be/en/classified/apartment/for-sale/la%20louvi%C3%88re/7100/11174691,11174691.0,Wallonie,Hainaut,LA LOUVIÈRE,7100.0,,,APARTMENT,APARTMENT,150000.0,2.0,124.0,SEMI_EQUIPPED,,-1.0,1,0.0,0,0.0,0.0,2.0,,GOOD,GAS,B,167.0,,,1209.68
https://www.immoweb.be/en/classified/flat-studio/for-sale/nieuwpoort/8620/11174688,11174688.0,Flanders,West Flanders,NIEUWPOORT,8620.0,2.7131111,51.1475678,APARTMENT,FLAT_STUDIO,325000.0,0.0,38.0,INSTALLED,1.0,,1,0.0,0,0.0,0.0,2.0,,unknown,unknown,B,136.0,,,8552.63
https://www.immoweb.be/en/classified/apartment/for-sale/izegem/8870/11168422,11168422.0,Flanders,West Flanders,Izegem,8870.0,3.2147958,50.912401,APARTMENT,APARTMENT,295000.0,3.0,112.0,unknown,,,0,0.0,0,0.0,0.0,2.0,,unknown,unknown,B,127.0,,,2633.93
https://www.immoweb.be/en/classified/apartment/for-sale/gent/9000/11168414,11168414.0,Flanders,East Flanders,Gent,9000.0,3.7292622,51.0722787,APARTMENT,APARTMENT,970000.0,3.0,420.0,unknown,,,0,0.0,0,0.0,0.0,2.0,,unknown,GAS,B,141.0,,1.0,2309.52
https://www.immoweb.be/en/classified/apartment/for-sale/ledeberg/9050/11168411,11168411.0,Flanders,East Flanders,Ledeberg,9050.0,3.737284,51.0353869,APARTMENT,APARTMENT,265000.0,2.0,95.0,INSTALLED,,,0,0.0,0,0.0,0.0,2.0,,TO_BE_DONE_UP,GAS,B,114.0,,,2789.47
https://www.immoweb.be/en/classified/duplex/for-sale/les%20bons%20villers/6210/11168410,11168410.0,Wallonie,Hainaut,LES BONS VILLERS,6210.0,,,APARTMENT,DUPLEX,170000.0,2.0,76.0,SEMI_EQUIPPED,,-1.0,0,0.0,0,0.0,0.0,3.0,,GOOD,GAS,C,174.0,,,2236.84
https://www.immoweb.be/en/classified/apartment/for-sale/antwerp/2000/11168409,11168409.0,Flanders,Antwerp,Antwerp,2000.0,4.3876877,51.209955,APARTMENT,APARTMENT,995000.0,2.0,138.0,unknown,,,1,0.0,0,0.0,0.0,2.0,,AS_NEW,GAS,B,163.0,,,7210.14
https://www.immoweb.be/en/classified/apartment/for-sale/leuven/3000/11168404,11168404.0,Flanders,Flemish Brabant,Leuven,3000.0,4.7114843,50.8778904,APARTMENT,APARTMENT,365000.0,3.0,98.0,INSTALLED,,,1,2.0,0,0.0,0.0,2.0,,unknown,GAS,B,142.0,,,3724.49
https://www.immoweb.be/en/classified/apartment/for-sale/ledeberg/9050/11168399,11168399.0,Flanders,East Flanders,Ledeberg,9050.0,3.7476966,51.038283,APARTMENT,APARTMENT,270000.0,2.0,99.0,unknown,,,0,0.0,0,0.0,0.0,2.0,,TO_BE_DONE_UP,unknown,B,141.0,,,2727.27
https://www.immoweb.be/en/classified/apartment/for-sale/gent/9000/11168397,11168397.0,Flanders,East Flanders,Gent,9000.0,3.721208,51.0411722,APARTMENT,APARTMENT,310000.0,2.0,100.0,unknown,,,0,0.0,0,0.0,0.0,2.0,,unknown,GAS,C,269.0,,,3100.0
https://www.immoweb.be/en/classified/apartment/for-sale/knokke-heist/8300/10552419,10552419.0,Flanders,West Flanders,Knokke-Heist,8300.0,3.2884448,51.3480736,APARTMENT,APARTMENT,799000.0,3.0,115.0,INSTALLED,,,1,0.0,0,0.0,0.0,2.0,,unknown,GAS,B,137.0,,,6947.83
https://www.immoweb.be/en/classified/apartment/for-sale/knokke-zoute/8300/11168384,11168384.0,Flanders,West Flanders,Knokke-Zoute,8300.0,3.3044825,51.3559359,APARTMENT,APARTMENT,1545000.0,3.0,100.0,unknown,,,1,0.0,0,0.0,0.0,2.0,,unknown,unknown,A,93.0,,,15450.0
https://www.immoweb.be/en/classified/apartment/for-sale/kortrijk/8500/11170822,11170822.0,Flanders,West Flanders,Kortrijk,8500.0,3.2716554,50.8334462,APARTMENT,APARTMENT,935000.0,4.0,214.0,HYPER_EQUIPPED,,,0,0.0,0,0.0,0.0,2.0,,unknown,GAS,B,109.0,,,4369.16
https://www.immoweb.be/en/classified/apartment/for-sale/overpelt/3900/11170816,11170816.0,Flanders,Limburg,Overpelt,3900.0,5.4283818,51.2242446,APARTMENT,APARTMENT,299000.0,2.0,123.0,INSTALLED,,,0,0.0,0,0.0,0.0,2.0,,unknown,GAS,B,110.0,,1.0,2430.89
https://www.immoweb.be/en/classified/duplex/for-sale/kortrijk/8500/11170815,11170815.0,Flanders,West Flanders,Kortrijk,8500.0,3.28359,50.8280523,APARTMENT,DUPLEX,295000.0,4.0,143.0,INSTALLED,,,0,0.0,0,0.0,0.0,2.0,,unknown,GAS,B,196.0,,,2062.94
https://www.immoweb.be/en/classified/apartment/for-sale/oostende/8400/11170813,11170813.0,Flanders,West Flanders,Oostende,8400.0,2.9083325,51.228266,APARTMENT,APARTMENT,165000.0,1.0,55.0,unknown,,,0,0.0,0,0.0,0.0,2.0,,TO_RENOVATE,FUELOIL,D,393.0,,,3000.0
https://www.immoweb.be/en/classified/apartment/for-sale/antwerpen%202018/2018/11170810,11170810.0,Flanders,Antwerp,ANTWERPEN 2018,2018.0,4.3962206,51.2020382,APARTMENT,APARTMENT,275000.0,1.0,56.0,INSTALLED,,-1.0,1,7.0,0,0.0,0.0,2.0,,JUST_RENOVATED,GAS,B,178.0,,,4910.71
https://www.immoweb.be/en/classified/ground-floor/for-sale/kapellen%20%282950%29/2950/11170794,11170794.0,Flanders,Antwerp,Kapellen (2950),2950.0,4.4161871,51.311084,APARTMENT,GROUND_FLOOR,775000.0,3.0,276.0,INSTALLED,,,0,0.0,0,0.0,0.0,4.0,,GOOD,ELECTRIC,C,259.0,,2.0,2807.97
https://www.immoweb.be/en/classified/apartment/for-sale/aalst%20%289300%29/9300/11170767,11170767.0,Flanders,East Flanders,Aalst (9300),9300.0,4.0297096,50.9401881,APARTMENT,APARTMENT,192000.0,2.0,81.0,INSTALLED,,,1,0.0,0,0.0,0.0,2.0,,unknown,unknown,D,377.0,,,2370.37
https://www.immoweb.be/en/classified/ground-floor/for-sale/antwerpen/2020/11174465,11174465.0,Flanders,Antwerp,Antwerpen,2020.0,4.3889375,51.1823665,APARTMENT,GROUND_FLOOR,249000.0,1.0,70.0,HYPER_EQUIPPED,0.0,,1,0.0,1,92.0,0.0,2.0,False,unknown,GAS,C,270.0,,,3557.14
https://www.immoweb.be/en/classified/apartment/for-sale/antwerpen/2020/11174464,11174464.0,Flanders,Antwerp,Antwerpen,2020.0,4.3926786,51.1857218,APARTMENT,APARTMENT,239900.0,2.0,76.0,unknown,0.0,,1,4.0,0,0.0,0.0,2.0,False,unknown,GAS,B,174.0,,,3156.58
https://www.immoweb.be/en/classified/apartment/for-sale/molenbeek-saint-jean/1080/11174463,11174463.0,Brussels,Brussels,Molenbeek-Saint-Jean,1080.0,4.3031304,50.8505518,APARTMENT,APARTMENT,249500.0,3.0,92.0,INSTALLED,0.0,,1,15.0,0,0.0,0.0,2.0,,GOOD,ELECTRIC,F,339.0,,1.0,2711.96
https://www.immoweb.be/en/classified/flat-studio/for-sale/blankenberge/8370/11174444,11174444.0,Flanders,West Flanders,Blankenberge,8370.0,3.1258346,51.3156841,APARTMENT,FLAT_STUDIO,119000.0,0.0,28.0,unknown,,,0,0.0,0,0.0,0.0,2.0,,GOOD,ELECTRIC,E,495.0,,,4250.0
https://www.immoweb.be/en/classified/apartment/for-sale/sint-andries/8200/11174438,11174438.0,Flanders,West Flanders,Sint-Andries,8200.0,3.2029967,51.2072211,APARTMENT,APARTMENT,165000.0,1.0,69.0,unknown,,,0,0.0,0,0.0,0.0,2.0,,GOOD,unknown,F,572.0,,,2391.3
https://www.immoweb.be/en/classified/apartment/for-sale/knokke-heist/8300/11174433,11174433.0,Flanders,West Flanders,Knokke-Heist,8300.0,,,APARTMENT,APARTMENT,385000.0,1.0,52.0,unknown,,,0,0.0,0,0.0,0.0,2.0,,GOOD,GAS,C,238.0,,,7403.85
https://www.immoweb.be/en/classified/apartment/for-sale/bredene/8450/11174427,11174427.0,Flanders,West Flanders,Bredene,8450.0,2.9503284,51.2426898,APARTMENT,APARTMENT,365000.0,3.0,104.0,unknown,,,1,0.0,0,0.0,0.0,2.0,,GOOD,GAS,B,123.0,,1.0,3509.62
https://www.immoweb.be/en/classified/apartment/for-sale/oostende/8400/11174426,11174426.0,Flanders,West Flanders,Oostende,8400.0,2.920417,51.2342581,APARTMENT,APARTMENT,179000.0,1.0,59.0,unknown,,,0,0.0,0,0.0,0.0,2.0,,GOOD,GAS,B,154.0,,,3033.9
https://www.immoweb.be/en/classified/apartment/for-sale/koekelberg/1081/11174404,11174404.0,Brussels,Brussels,Koekelberg,1081.0,4.310036,50.8651807,APARTMENT,APARTMENT,199000.0,2.0,84.0,SEMI_EQUIPPED,0.0,,1,8.0,0,0.0,0.0,2.0,False,TO_BE_DONE_UP,GAS,D,185.0,,,2369.05
https://www.immoweb.be/en/classified/apartment/for-sale/blankenberge/8370/11174403,11174403.0,Flanders,West Flanders,BLANKENBERGE,8370.0,,,APARTMENT,APARTMENT,359000.0,2.0,75.0,INSTALLED,,,1,0.0,0,0.0,0.0,2.0,,GOOD,GAS,A,95.0,,1.0,4786.67
https://www.immoweb.be/en/classified/apartment/for-sale/nieuwpoort/8620/11164072,11164072.0,Flanders,West Flanders,Nieuwpoort,8620.0,,,APARTMENT,APARTMENT,529000.0,3.0,147.0,INSTALLED,,,0,0.0,0,0.0,0.0,2.0,,unknown,ELECTRIC,B,166.0,,,3598.64
https://www.immoweb.be/en/classified/apartment/for-sale/nieuwpoort/8620/11164069,11164069.0,Flanders,West Flanders,Nieuwpoort,8620.0,,,APARTMENT,APARTMENT,189500.0,1.0,52.0,INSTALLED,,,0,0.0,0,0.0,0.0,2.0,,unknown,ELECTRIC,D,335.0,,,3644.23
https://www.immoweb.be/en/classified/apartment/for-sale/nieuwpoort/8620/11164068,11164068.0,Flanders,West Flanders,Nieuwpoort,8620.0,,,APARTMENT,APARTMENT,219000.0,1.0,41.0,INSTALLED,,,0,0.0,0,0.0,0.0,2.0,,unknown,ELECTRIC,C,209.0,,,5341.46
https://www.immoweb.be/en/classified/apartment/for-sale/nieuwpoort/8620/11164067,11164067.0,Flanders,West Flanders,Nieuwpoort,8620.0,,,APARTMENT,APARTMENT,249000.0,1.0,39.0,INSTALLED,,,0,0.0,0,0.0,0.0,2.0,,unknown,ELECTRIC,D,324.0,,,6384.62
https://www.immoweb.be/en/classified/apartment/for-sale/nieuwpoort/8620/11164065,11164065.0,Flanders,West Flanders,Nieuwpoort,8620.0,,,APARTMENT,APARTMENT,185000.0,1.0,46.0,unknown,,,0,0.0,0,0.0,0.0,2.0,,unknown,GAS,B,102.0,,,4021.74
https://www.immoweb.be/en/classified/apartment/for-sale/sint-denijs-westrem/9051/11164056,11164056.0,Flanders,East Flanders,Sint-Denijs-Westrem,9051.0,3.669581,51.0190652,APARTMENT,APARTMENT,384000.0,2.0,127.0,unknown,,,0,0.0,0,0.0,0.0,2.0,,unknown,unknown,B,122.0,,,3023.62
https://www.immoweb.be/en/classified/apartment/for-sale/knokke-heist/8300/11164049,11164049.0,Flanders,West Flanders,Knokke-Heist,8300.0,,,APARTMENT,APARTMENT,575000.0,2.0,85.0,unknown,,,0,0.0,0,0.0,0.0,2.0,,TO_BE_DONE_UP,unknown,A,100.0,,1.0,6764.71
https://www.immoweb.be/en/classified/apartment/for-sale/burcht/2070/11164048,11164048.0,Flanders,Antwerp,Burcht,2070.0,4.3339636,51.2000057,APARTMENT,APARTMENT,269000.0,3.0,105.0,SEMI_EQUIPPED,,-1.0,1,0.0,1,130.0,0.0,2.0,,TO_BE_DONE_UP,GAS,B,173.0,,1.0,2561.9
https://www.immoweb.be/en/classified/apartment/for-sale/brasschaat/2930/11164046,11164046.0,Flanders,Antwerp,Brasschaat,2930.0,4.4550987,51.2789659,APARTMENT,APARTMENT,245000.0,2.0,111.0,unknown,,-1.0,1,0.0,0,0.0,0.0,2.0,,TO_BE_DONE_UP,GAS,C,269.0,,,2207.21
https://www.immoweb.be/en/classified/apartment/for-sale/brasschaat/2930/11164045,11164045.0,Flanders,Antwerp,Brasschaat,2930.0,4.4550987,51.2789659,APARTMENT,APARTMENT,245000.0,2.0,111.0,INSTALLED,,-1.0,0,0.0,0,0.0,0.0,2.0,,TO_BE_DONE_UP,GAS,C,240.0,,,2207.21
https://www.immoweb.be/en/classified/ground-floor/for-sale/brasschaat/2930/11164044,11164044.0,Flanders,Antwerp,Brasschaat,2930.0,4.4543758,51.2798223,APARTMENT,GROUND_FLOOR,225000.0,2.0,99.0,unknown,,-1.0,1,0.0,0,0.0,0.0,2.0,,TO_BE_DONE_UP,GAS,C,228.0,,1.0,2272.73
https://www.immoweb.be/en/classified/apartment/for-sale/hasselt/3500/11164040,11164040.0,Flanders,Limburg,Hasselt,3500.0,5.336344,50.930838,APARTMENT,APARTMENT,349000.0,1.0,65.0,unknown,,,1,15.0,0,0.0,0.0,2.0,,GOOD,GAS,A,65.0,,,5369.23
https://www.immoweb.be/en/classified/penthouse/for-sale/schaerbeek/1030/11169960,11169960.0,Brussels,Brussels,Schaerbeek,1030.0,4.401441,50.8543834,APARTMENT,PENTHOUSE,465000.0,3.0,151.0,INSTALLED,0.0,,1,30.0,0,0.0,0.0,3.0,False,GOOD,GAS,D,165.0,1.0,,3079.47
https://www.immoweb.be/en/classified/apartment/for-sale/antwerp/2000/11169941,11169941.0,Flanders,Antwerp,Antwerp,2000.0,4.3998106,51.222223,APARTMENT,APARTMENT,259000.0,1.0,84.0,SEMI_EQUIPPED,,-1.0,0,0.0,0,0.0,0.0,3.0,,AS_NEW,GAS,B,174.0,,,3083.33
https://www.immoweb.be/en/classified/apartment/for-sale/boom/2850/11169938,11169938.0,Flanders,Antwerp,Boom,2850.0,4.3630938,51.0870248,APARTMENT,APARTMENT,159000.0,2.0,77.0,SEMI_EQUIPPED,,-1.0,0,0.0,0,0.0,0.0,4.0,,GOOD,GAS,C,215.0,,,2064.94
https://www.immoweb.be/en/classified/apartment/for-sale/brussels%20city/1000/11169925,11169925.0,Brussels,Brussels,Brussels City,1000.0,4.3416693,50.8415503,APARTMENT,APARTMENT,512000.0,2.0,188.0,USA_HYPER_EQUIPPED,,-1.0,0,0.0,0,0.0,0.0,2.0,,GOOD,GAS,D,162.0,,,2723.4
https://www.immoweb.be/en/classified/apartment/for-sale/beringen/3580/11169920,11169920.0,Flanders,Limburg,Beringen,3580.0,5.2221436,51.0486845,APARTMENT,APARTMENT,185000.0,3.0,106.0,unknown,,-1.0,0,0.0,0,0.0,0.0,2.0,,unknown,GAS,C,228.0,,,1745.28
https://www.immoweb.be/en/classified/apartment/for-sale/jette/1090/11173320,11173320.0,Brussels,Brussels,Jette,1090.0,4.3368648,50.8827825,APARTMENT,APARTMENT,230000.0,1.0,72.0,SEMI_EQUIPPED,,-1.0,1,15.0,0,0.0,0.0,2.0,,TO_BE_DONE_UP,GAS,D,178.0,1.0,1.0,3194.44
https://www.immoweb.be/en/classified/duplex/for-sale/knokke/8300/11173304,11173304.0,Flanders,West Flanders,Knokke,8300.0,3.286429,51.3446691,APARTMENT,DUPLEX,695000.0,2.0,82.0,HYPER_EQUIPPED,,,1,19.0,0,0.0,0.0,2.0,,unknown,GAS,B,164.0,,1.0,8475.61
https://www.immoweb.be/en/classified/apartment/for-sale/merksem/2170/11173298,11173298.0,Flanders,Antwerp,Merksem,2170.0,4.4296672,51.2482245,APARTMENT,APARTMENT,215000.0,2.0,95.0,unknown,,,1,6.0,0,0.0,0.0,2.0,,unknown,unknown,F,639.0,,1.0,2263.16
https://www.immoweb.be/en/classified/apartment/for-sale/antwerp/2000/11173276,11173276.0,Flanders,Antwerp,Antwerp,2000.0,4.4166238,51.2221923,APARTMENT,APARTMENT,320000.0,2.0,140.0,INSTALLED,,1.0,1,3.0,0,0.0,0.0,2.0,,GOOD,ELECTRIC,D,322.0,,,2285.71
https://www.immoweb.be/en/classified/apartment/for-sale/nieuwpoort/8620/11173258,11173258.0,Flanders,West Flanders,Nieuwpoort,8620.0,,,APARTMENT,APARTMENT,835000.0,2.0,109.0,unknown,,,0,0.0,0,0.0,0.0,2.0,,unknown,unknown,C,236.0,,,7660.55
https://www.immoweb.be/en/classified/apartment/for-sale/westende/8434/11173257,11173257.0,Flanders,West Flanders,Westende,8434.0,2.7785716,51.1694466,APARTMENT,APARTMENT,155000.0,2.0,48.0,unknown,,,0,0.0,0,0.0,0.0,2.0,,unknown,unknown,D,315.0,,1.0,3229.17
https://www.immoweb.be/en/classified/apartment/for-sale/hasselt/3500/11173255,11173255.0,Flanders,Limburg,Hasselt,3500.0,5.3376277,50.9388007,APARTMENT,APARTMENT,995000.0,3.0,169.0,HYPER_EQUIPPED,,,1,25.0,0,0.0,0.0,2.0,,GOOD,GAS,A,99.0,,,5887.57
https://www.immoweb.be/en/classified/apartment/for-sale/bastogne/6600/11170614,11170614.0,Wallonie,Luxembourg,BASTOGNE,6600.0,5.7096182,50.001103,APARTMENT,APARTMENT,260000.0,2.0,90.0,INSTALLED,,,0,0.0,0,0.0,0.0,2.0,,unknown,GAS,A,64.0,,,2888.89
https://www.immoweb.be/en/classified/apartment/for-sale/sint-niklaas/9100/11170594,11170594.0,Flanders,East Flanders,Sint-Niklaas,9100.0,4.1446407,51.1682488,APARTMENT,APARTMENT,925000.0,0.0,533.0,unknown,0.0,,0,0.0,0,0.0,0.0,2.0,False,unknown,FUELOIL,C,237.0,,,1735.46
https://www.immoweb.be/en/classified/apartment/for-sale/brussels/1000/11170572,11170572.0,Brussels,Brussels,Brussels,1000.0,4.3408924,50.8478718,APARTMENT,APARTMENT,635000.0,2.0,159.0,HYPER_EQUIPPED,0.0,,1,18.0,0,0.0,0.0,2.0,False,AS_NEW,GAS,C,107.0,1.0,,3993.71
https://www.immoweb.be/en/classified/apartment/for-sale/li%C3%A8ge%20grivegn%C3%A9e/4030/11171694,11171694.0,Wallonie,Liège,Liège Grivegnée,4030.0,5.6105653,50.6303281,APARTMENT,APARTMENT,79900.0,1.0,39.0,unknown,0.0,,0,0.0,0,0.0,0.0,2.0,False,GOOD,GAS,E,409.0,,,2048.72
https://www.immoweb.be/en/classified/flat-studio/for-sale/herstal/4040/11096619,11096619.0,Wallonie,Liège,Herstal,4040.0,5.6143687,50.6562096,APARTMENT,FLAT_STUDIO,90000.0,0.0,30.0,unknown,0.0,,1,8.0,0,0.0,0.0,2.0,False,GOOD,FUELOIL,G,547.0,,,3000.0
https://www.immoweb.be/en/classified/apartment/for-sale/uccle/1180/11171693,11171693.0,Brussels,Brussels,Uccle,1180.0,4.341169,50.8137658,APARTMENT,APARTMENT,235000.0,1.0,60.0,unknown,0.0,,0,0.0,0,0.0,0.0,2.0,False,GOOD,GAS,E,240.0,,,3916.67
https://www.immoweb.be/en/classified/apartment/for-sale/knokke-heist/8300/11171687,11171687.0,Flanders,West Flanders,Knokke-Heist,8300.0,,,APARTMENT,APARTMENT,1015000.0,3.0,108.0,unknown,0.0,,1,0.0,0,0.0,0.0,2.0,False,AS_NEW,unknown,B,151.0,,,9398.15
https://www.immoweb.be/en/classified/apartment/for-sale/schoten/2900/11171679,11171679.0,Flanders,Antwerp,Schoten,2900.0,4.4872399,51.2512061,APARTMENT,APARTMENT,222000.0,2.0,82.0,SEMI_EQUIPPED,,,0,0.0,0,0.0,0.0,4.0,,TO_RENOVATE,GAS,C,300.0,1.0,1.0,2707.32
https://www.immoweb.be/en/classified/apartment/for-sale/braine-l%27alleud/1420/11171662,11171662.0,Wallonie,Walloon Brabant,Braine-l'Alleud,1420.0,,,APARTMENT,APARTMENT,165000.0,1.0,57.0,SEMI_EQUIPPED,0.0,,1,7.0,0,0.0,0.0,2.0,False,TO_RENOVATE,ELECTRIC,E,401.0,,,2894.74
https://www.immoweb.be/en/classified/apartment/for-sale/waterloo/1410/11171661,11171661.0,Wallonie,Walloon Brabant,Waterloo,1410.0,,,APARTMENT,APARTMENT,425000.0,3.0,120.0,unknown,0.0,,1,10.0,0,0.0,0.0,3.0,False,TO_BE_DONE_UP,GAS,C,217.0,,1.0,3541.67
https://www.immoweb.be/en/classified/apartment/for-sale/kapellen/2950/11171658,11171658.0,Flanders,Antwerp,Kapellen,2950.0,4.3992781,51.348389,APARTMENT,APARTMENT,279000.0,3.0,95.0,unknown,0.0,,1,0.0,0,0.0,0.0,2.0,,unknown,unknown,C,205.0,2.0,1.0,2936.84
https://www.immoweb.be/en/classified/apartment/for-sale/antwerpen%20deurne/2100/11038648,11038648.0,Flanders,Antwerp,Antwerpen Deurne,2100.0,4.462545,51.21069,APARTMENT,APARTMENT,239900.0,3.0,86.0,INSTALLED,0.0,,1,9.0,0,0.0,0.0,2.0,False,GOOD,FUELOIL,C,295.0,1.0,1.0,2789.53
https://www.immoweb.be/en/classified/apartment/for-sale/antwerp/2000/11171656,11171656.0,Flanders,Antwerp,Antwerp,2000.0,4.4156415,51.2250452,APARTMENT,APARTMENT,325000.0,2.0,123.0,USA_SEMI_EQUIPPED,0.0,,1,0.0,0,0.0,0.0,2.0,,TO_BE_DONE_UP,FUELOIL,D,337.0,,1.0,2642.28
https://www.immoweb.be/en/classified/apartment/for-sale/antwerpen%20%282018%29/2018/11171056,11171056.0,Flanders,Antwerp,Antwerpen (2018),2018.0,4.4075487,51.1946554,APARTMENT,APARTMENT,392000.0,2.0,115.0,INSTALLED,,,1,24.0,0,0.0,0.0,2.0,,unknown,GAS,B,123.0,,,3408.7
https://www.immoweb.be/en/classified/ground-floor/for-sale/meerbeke/9402/11171043,11171043.0,Flanders,East Flanders,Meerbeke,9402.0,4.0279949,50.8277169,APARTMENT,GROUND_FLOOR,159000.0,2.0,78.0,unknown,,,0,0.0,0,0.0,0.0,2.0,,GOOD,unknown,B,147.0,,,2038.46
https://www.immoweb.be/en/classified/ground-floor/for-sale/ninove/9400/11171039,11171039.0,Flanders,East Flanders,Ninove,9400.0,4.0279949,50.8277169,APARTMENT,GROUND_FLOOR,159000.0,2.0,78.0,unknown,,,0,0.0,0,0.0,0.0,2.0,,GOOD,unknown,B,147.0,,,2038.46
https://www.immoweb.be/en/classified/apartment/for-sale/sint-truiden/3800/11171026,11171026.0,Flanders,Limburg,Sint-Truiden,3800.0,5.1852036,50.8173627,APARTMENT,APARTMENT,274900.0,2.0,87.0,INSTALLED,,,1,8.0,0,0.0,0.0,2.0,,unknown,GAS,B,117.0,,,3159.77
https://www.immoweb.be/en/classified/apartment/for-sale/sint-denijs-westrem/9051/11171022,11171022.0,Flanders,East Flanders,Sint-Denijs-Westrem,9051.0,3.6963796,51.0233853,APARTMENT,APARTMENT,119000.0,1.0,43.0,INSTALLED,,,1,0.0,0,0.0,0.0,2.0,,unknown,ELECTRIC,C,276.0,,,2767.44
https://www.immoweb.be/en/classified/apartment/for-sale/merelbeke/9820/11171021,11171021.0,Flanders,East Flanders,Merelbeke,9820.0,3.7531303,51.0199125,APARTMENT,APARTMENT,264000.0,2.0,85.0,INSTALLED,,,1,0.0,0,0.0,0.0,2.0,,unknown,ELECTRIC,B,185.0,,,3105.88
https://www.immoweb.be/en/classified/duplex/for-sale/sijsele/8340/11171020,11171020.0,Flanders,West Flanders,Sijsele,8340.0,3.3181466,51.206981,APARTMENT,DUPLEX,275000.0,2.0,100.0,unknown,,,0,0.0,0,0.0,0.0,2.0,,GOOD,unknown,B,0.0,,,2750.0
https://www.immoweb.be/en/classified/apartment/for-sale/jambes/5100/11171006,11171006.0,Wallonie,Namur,Jambes,5100.0,,,APARTMENT,APARTMENT,155000.0,1.0,47.0,SEMI_EQUIPPED,,-1.0,0,0.0,0,0.0,0.0,2.0,,TO_BE_DONE_UP,GAS,B,162.0,,1.0,3297.87
https://www.immoweb.be/en/classified/ground-floor/for-sale/etterbeek/1040/11169589,11169589.0,Brussels,Brussels,Etterbeek,1040.0,4.3836584,50.82801,APARTMENT,GROUND_FLOOR,289000.0,1.0,92.0,HYPER_EQUIPPED,,,0,0.0,0,0.0,0.0,2.0,False,GOOD,GAS,G,373.0,,,3141.3
https://www.immoweb.be/en/classified/service-flat/for-sale/bornem/2880/10834237,10834237.0,Flanders,Antwerp,Bornem,2880.0,,,APARTMENT,SERVICE_FLAT,260000.0,2.0,88.0,USA_HYPER_EQUIPPED,0.0,,0,0.0,0,0.0,0.0,2.0,,AS_NEW,GAS,A,65.0,,1.0,2954.55
https://www.immoweb.be/en/classified/apartment/for-sale/tournai/7500/11169564,11169564.0,Wallonie,Hainaut,Tournai,7500.0,3.3792658,50.6078569,APARTMENT,APARTMENT,249000.0,3.0,151.0,unknown,0.0,,1,0.0,0,0.0,0.0,2.0,,GOOD,unknown,C,208.0,,2.0,1649.01
https://www.immoweb.be/en/classified/apartment/for-sale/brussels%20city/1000/11169559,11169559.0,Brussels,Brussels,Brussels City,1000.0,4.3830621,50.8461345,APARTMENT,APARTMENT,415000.0,2.0,105.0,SEMI_EQUIPPED,,,0,0.0,0,0.0,0.0,2.0,,TO_BE_DONE_UP,GAS,F,340.0,,1.0,3952.38
https://www.immoweb.be/en/classified/apartment/for-sale/aiseau-presles%20pont-de-loup/6250/11169544,11169544.0,Wallonie,Hainaut,Aiseau-Presles Pont-de-Loup,6250.0,4.5507361,50.4122273,APARTMENT,APARTMENT,249000.0,3.0,159.0,unknown,0.0,,1,0.0,0,0.0,0.0,3.0,,AS_NEW,unknown,C,217.0,1.0,,1566.04
https://www.immoweb.be/en/classified/apartment/for-sale/eecloo/9900/11169539,11169539.0,Flanders,East Flanders,Eecloo,9900.0,3.8242362,51.1998849,APARTMENT,APARTMENT,395000.0,3.0,101.0,unknown,0.0,,0,0.0,0,0.0,0.0,4.0,False,unknown,unknown,A,72.0,,,3910.89
https://www.immoweb.be/en/classified/apartment/for-sale/bassenge/4690/11169530,11169530.0,Wallonie,Liège,Bassenge,4690.0,5.5988286,50.7571994,APARTMENT,APARTMENT,169000.0,2.0,69.0,unknown,0.0,,0,0.0,0,0.0,0.0,3.0,False,AS_NEW,ELECTRIC,G,871.0,,,2449.28
https://www.immoweb.be/en/classified/apartment/for-sale/jette/1090/11169483,11169483.0,Brussels,Brussels,Jette,1090.0,4.3219938,50.8934178,APARTMENT,APARTMENT,239000.0,3.0,99.0,unknown,,,1,15.0,0,0.0,0.0,4.0,False,GOOD,GAS,E,270.0,,,2414.14
https://www.immoweb.be/en/classified/apartment/for-sale/merchtem/1785/11173389,11173389.0,Flanders,Flemish Brabant,Merchtem,1785.0,4.2354079,50.9550247,APARTMENT,APARTMENT,270000.0,2.0,81.0,INSTALLED,,-1.0,1,0.0,0,0.0,0.0,2.0,,GOOD,ELECTRIC,B,182.0,,1.0,3333.33
https://www.immoweb.be/en/classified/apartment/for-sale/merchtem/1785/11173388,11173388.0,Flanders,Flemish Brabant,Merchtem,1785.0,4.2265479,50.956288,APARTMENT,APARTMENT,285000.0,2.0,83.0,INSTALLED,,-1.0,1,6.0,0,0.0,0.0,2.0,,GOOD,GAS,A,76.0,,1.0,3433.73
https://www.immoweb.be/en/classified/apartment/for-sale/ixelles/1050/11173380,11173380.0,Brussels,Brussels,Ixelles,1050.0,,,APARTMENT,APARTMENT,279000.0,2.0,65.0,USA_HYPER_EQUIPPED,1.0,,0,0.0,0,0.0,0.0,2.0,False,AS_NEW,GAS,G,364.0,,,4292.31
https://www.immoweb.be/en/classified/apartment/for-sale/uccle/1180/11173379,11173379.0,Brussels,Brussels,Uccle,1180.0,,,APARTMENT,APARTMENT,279000.0,2.0,65.0,USA_HYPER_EQUIPPED,1.0,,0,0.0,0,0.0,0.0,2.0,False,AS_NEW,GAS,G,364.0,,,4292.31
https://www.immoweb.be/en/classified/apartment/for-sale/ingelmunster/8770/11173370,11173370.0,Flanders,West Flanders,Ingelmunster,8770.0,3.2536703,50.9249999,APARTMENT,APARTMENT,212000.0,1.0,60.0,INSTALLED,,,1,17.0,0,0.0,0.0,2.0,,unknown,GAS,A,93.0,,,3533.33
https://www.immoweb.be/en/classified/apartment/for-sale/gentbrugge/9050/11173366,11173366.0,Flanders,East Flanders,Gentbrugge,9050.0,3.7615793,51.0204474,APARTMENT,APARTMENT,240000.0,1.0,73.0,unknown,,,0,0.0,0,0.0,0.0,2.0,,unknown,unknown,B,141.0,1.0,,3287.67
https://www.immoweb.be/en/classified/apartment/for-sale/temse/9140/11171430,11171430.0,Flanders,East Flanders,Temse,9140.0,4.2080725,51.1221785,APARTMENT,APARTMENT,695000.0,2.0,175.0,unknown,,,0,0.0,0,0.0,0.0,2.0,,GOOD,unknown,B,110.0,,3.0,3971.43
https://www.immoweb.be/en/classified/apartment/for-sale/de%20panne/8660/11171418,11171418.0,Flanders,West Flanders,De Panne,8660.0,2.5795828,51.1007874,APARTMENT,APARTMENT,419000.0,2.0,91.0,unknown,,,0,0.0,0,0.0,0.0,2.0,,unknown,unknown,C,273.0,,,4604.4
https://www.immoweb.be/en/classified/apartment/for-sale/knokke-heist/8300/11171402,11171402.0,Flanders,West Flanders,Knokke-Heist,8300.0,3.2930628,51.3516312,APARTMENT,APARTMENT,469000.0,2.0,68.0,unknown,,,0,0.0,0,0.0,0.0,2.0,,unknown,GAS,B,117.0,,,6897.06
https://www.immoweb.be/en/classified/apartment/for-sale/gent/9000/11171395,11171395.0,Flanders,East Flanders,Gent,9000.0,3.7472333,51.0736249,APARTMENT,APARTMENT,295000.0,2.0,94.0,INSTALLED,,,1,0.0,0,0.0,0.0,2.0,,unknown,GAS,B,178.0,,1.0,3138.3
https://www.immoweb.be/en/classified/apartment/for-sale/koekelberg/1081/11171393,11171393.0,Brussels,Brussels,Koekelberg,1081.0,4.3268304,50.8670954,APARTMENT,APARTMENT,249000.0,2.0,91.0,INSTALLED,,,0,0.0,0,0.0,0.0,2.0,,unknown,GAS,F,298.0,,,2736.26
https://www.immoweb.be/en/classified/flat-studio/for-sale/middelkerke/8430/11171388,11171388.0,Flanders,West Flanders,Middelkerke,8430.0,2.8097714,51.1851968,APARTMENT,FLAT_STUDIO,95000.0,0.0,38.0,unknown,,,0,0.0,0,0.0,0.0,2.0,,TO_RENOVATE,ELECTRIC,D,304.0,,,2500.0
https://www.immoweb.be/en/classified/flat-studio/for-sale/middelkerke/8430/11171387,11171387.0,Flanders,West Flanders,Middelkerke,8430.0,2.8198687,51.1881212,APARTMENT,FLAT_STUDIO,115000.0,0.0,35.0,unknown,,,0,0.0,0,0.0,0.0,2.0,,TO_BE_DONE_UP,ELECTRIC,C,222.0,,,3285.71
https://www.immoweb.be/en/classified/duplex/for-sale/holsbeek/3220/11174124,11174124.0,Flanders,Flemish Brabant,Holsbeek,3220.0,4.7664603,50.9205138,APARTMENT,DUPLEX,469000.0,2.0,135.0,HYPER_EQUIPPED,0.0,,1,12.0,0,0.0,0.0,2.0,,AS_NEW,GAS,B,128.0,1.0,,3474.07
https://www.immoweb.be/en/classified/apartment/for-sale/mons%20harmignies/7022/11174119,11174119.0,Wallonie,Hainaut,Mons Harmignies,7022.0,4.017522,50.4069812,APARTMENT,APARTMENT,185000.0,2.0,83.0,INSTALLED,0.0,,0,0.0,0,0.0,0.0,2.0,False,GOOD,ELECTRIC,E,367.0,,,2228.92
https://www.immoweb.be/en/classified/apartment/for-sale/mons%20harmignies/7022/11174118,11174118.0,Wallonie,Hainaut,Mons Harmignies,7022.0,4.0169718,50.4068865,APARTMENT,APARTMENT,150000.0,2.0,71.0,INSTALLED,0.0,,0,0.0,0,0.0,0.0,2.0,False,GOOD,ELECTRIC,D,270.0,,,2112.68
https://www.immoweb.be/en/classified/apartment/for-sale/mons%20harmignies/7022/11174117,11174117.0,Wallonie,Hainaut,Mons Harmignies,7022.0,4.017522,50.4069812,APARTMENT,APARTMENT,85000.0,1.0,38.0,INSTALLED,0.0,,0,0.0,0,0.0,0.0,2.0,False,GOOD,ELECTRIC,E,361.0,,,2236.84
https://www.immoweb.be/en/classified/apartment/for-sale/mons%20harmignies/7022/11174116,11174116.0,Wallonie,Hainaut,Mons Harmignies,7022.0,4.0166189,50.406796,APARTMENT,APARTMENT,175000.0,2.0,78.0,INSTALLED,0.0,,0,0.0,0,0.0,0.0,2.0,False,GOOD,ELECTRIC,G,556.0,,,2243.59
https://www.immoweb.be/en/classified/apartment/for-sale/li%C3%A8ge/4020/11174114,11174114.0,Wallonie,Liège,Liège,4020.0,5.5773764,50.6358194,APARTMENT,APARTMENT,169000.0,2.0,81.0,unknown,,,1,0.0,0,0.0,0.0,2.0,,GOOD,GAS,D,283.0,,,2086.42
https://www.immoweb.be/en/classified/apartment/for-sale/charleroi/6000/10902817,10902817.0,Wallonie,Hainaut,Charleroi,6000.0,4.4417756,50.4123302,APARTMENT,APARTMENT,139000.0,2.0,132.0,unknown,,,0,0.0,0,0.0,0.0,2.0,,GOOD,unknown,B,126.0,,1.0,1053.03
https://www.immoweb.be/en/classified/apartment/for-sale/sint-niklaas/9100/11174101,11174101.0,Flanders,East Flanders,Sint-Niklaas,9100.0,4.1527967,51.1639078,APARTMENT,APARTMENT,148000.0,1.0,68.0,USA_INSTALLED,1.0,,0,0.0,0,0.0,0.0,2.0,False,GOOD,FUELOIL,E,470.0,,,2176.47
https://www.immoweb.be/en/classified/apartment/for-sale/li%C3%A8ge/4000/11174098,11174098.0,Wallonie,Liège,Liège,4000.0,5.5767209,50.6226771,APARTMENT,APARTMENT,179000.0,2.0,84.0,INSTALLED,0.0,,1,6.0,0,0.0,0.0,3.0,False,GOOD,GAS,B,125.0,,,2130.95
https://www.immoweb.be/en/classified/apartment/for-sale/nieuwpoort/8620/11163356,11163356.0,Flanders,West Flanders,NIEUWPOORT,8620.0,2.7206796,51.1501772,APARTMENT,APARTMENT,479000.0,2.0,70.0,INSTALLED,1.0,,1,4.0,0,0.0,0.0,3.0,,GOOD,unknown,C,207.0,,,6842.86
https://www.immoweb.be/en/classified/apartment/for-sale/kortrijk/8500/11163355,11163355.0,Flanders,West Flanders,Kortrijk,8500.0,3.2644784,50.8331452,APARTMENT,APARTMENT,498000.0,2.0,123.0,INSTALLED,0.0,,1,30.0,0,0.0,0.0,4.0,False,AS_NEW,GAS,A,94.0,,,4048.78
https://www.immoweb.be/en/classified/apartment/for-sale/namur/5000/11163349,11163349.0,Wallonie,Namur,Namur,5000.0,4.9979224,50.4700352,APARTMENT,APARTMENT,235000.0,2.0,88.0,USA_HYPER_EQUIPPED,0.0,,0,0.0,0,0.0,0.0,2.0,,AS_NEW,GAS,B,99.0,,2.0,2670.45
https://www.immoweb.be/en/classified/flat-studio/for-sale/antwerp/2000/11163326,11163326.0,Flanders,Antwerp,Antwerp,2000.0,4.4062815,51.2104253,APARTMENT,FLAT_STUDIO,159900.0,1.0,45.0,SEMI_EQUIPPED,,-1.0,0,0.0,0,0.0,0.0,2.0,,GOOD,GAS,C,239.0,,,3553.33
https://www.immoweb.be/en/classified/apartment/for-sale/berchem/2600/11163325,11163325.0,Flanders,Antwerp,Berchem,2600.0,4.4396796,51.1847982,APARTMENT,APARTMENT,245000.0,2.0,112.0,SEMI_EQUIPPED,,-1.0,1,19.0,0,0.0,0.0,2.0,,GOOD,GAS,B,134.0,,1.0,2187.5
https://www.immoweb.be/en/classified/apartment/for-sale/antwerp/2020/11163323,11163323.0,Flanders,Antwerp,Antwerp,2020.0,4.3915097,51.1821925,APARTMENT,APARTMENT,179000.0,2.0,83.0,SEMI_EQUIPPED,,-1.0,1,9.0,0,0.0,0.0,2.0,,GOOD,FUELOIL,B,174.0,,,2156.63
https://www.immoweb.be/en/classified/apartment/for-sale/antwerp/2020/11163322,11163322.0,Flanders,Antwerp,Antwerp,2020.0,4.3931835,51.1838746,APARTMENT,APARTMENT,199000.0,2.0,83.0,SEMI_EQUIPPED,,-1.0,1,4.0,0,0.0,0.0,2.0,,JUST_RENOVATED,FUELOIL,B,124.0,,,2397.59
https://www.immoweb.be/en/classified/apartment/for-sale/antwerp/2000/11163320,11163320.0,Flanders,Antwerp,Antwerp,2000.0,4.3860575,51.2083095,APARTMENT,APARTMENT,310000.0,2.0,72.0,INSTALLED,,-1.0,0,0.0,0,0.0,0.0,2.0,,GOOD,GAS,A,96.0,,,4305.56
https://www.immoweb.be/en/classified/apartment/for-sale/wilrijk/2610/11163318,11163318.0,Flanders,Antwerp,Wilrijk,2610.0,4.3900478,51.1788666,APARTMENT,APARTMENT,278000.0,2.0,90.0,INSTALLED,,-1.0,1,12.0,0,0.0,0.0,2.0,,GOOD,GAS,A,67.0,,1.0,3088.89
https://www.immoweb.be/en/classified/apartment/for-sale/gent/9050/11163311,11163311.0,Flanders,East Flanders,Gent,9050.0,3.7458779,51.0368953,APARTMENT,APARTMENT,298000.0,2.0,74.0,unknown,,,0,0.0,0,0.0,0.0,2.0,,GOOD,ELECTRIC,C,285.0,,,4027.03
https://www.immoweb.be/en/classified/apartment/for-sale/brugge/8000/11163291,11163291.0,Flanders,West Flanders,Brugge,8000.0,3.2284353,51.2175636,APARTMENT,APARTMENT,229000.0,2.0,111.0,unknown,,,1,20.0,0,0.0,0.0,2.0,,GOOD,GAS,E,459.0,,,2063.06
https://www.immoweb.be/en/classified/apartment/for-sale/antwerpen%20borgerhout/2140/11166645,11166645.0,Flanders,Antwerp,Antwerpen Borgerhout,2140.0,4.4349291,51.2145679,APARTMENT,APARTMENT,169000.0,2.0,82.0,INSTALLED,0.0,,1,4.0,0,0.0,0.0,2.0,,unknown,unknown,F,521.0,,,2060.98
https://www.immoweb.be/en/classified/apartment/for-sale/antwerpen%20borgerhout/2140/11166644,11166644.0,Flanders,Antwerp,Antwerpen Borgerhout,2140.0,4.4349291,51.2145679,APARTMENT,APARTMENT,169000.0,2.0,82.0,INSTALLED,0.0,,1,4.0,0,0.0,0.0,2.0,,unknown,unknown,F,672.0,,,2060.98
https://www.immoweb.be/en/classified/apartment/for-sale/kuurne/8520/11166624,11166624.0,Flanders,West Flanders,Kuurne,8520.0,3.286274,50.8526894,APARTMENT,APARTMENT,159000.0,1.0,40.0,unknown,,,0,0.0,0,0.0,0.0,2.0,,GOOD,GAS,B,154.0,,,3975.0
https://www.immoweb.be/en/classified/apartment/for-sale/gent/9000/11166623,11166623.0,Flanders,East Flanders,Gent,9000.0,3.7359139,51.0449448,APARTMENT,APARTMENT,289000.0,2.0,88.0,unknown,,,0,0.0,0,0.0,0.0,2.0,,GOOD,GAS,E,487.0,,,3284.09
https://www.immoweb.be/en/classified/apartment/for-sale/schaerbeek/1030/11166607,11166607.0,Brussels,Brussels,Schaerbeek,1030.0,,,APARTMENT,APARTMENT,179000.0,1.0,77.0,unknown,0.0,,1,6.0,0,0.0,0.0,2.0,False,TO_BE_DONE_UP,GAS,G,372.0,,,2324.68
https://www.immoweb.be/en/classified/apartment/for-sale/laeken/1020/11166606,11166606.0,Brussels,Brussels,Laeken,1020.0,,,APARTMENT,APARTMENT,215000.0,2.0,100.0,unknown,0.0,1.0,1,93.0,0,0.0,0.0,2.0,False,TO_RENOVATE,GAS,G,843.0,,,2150.0
https://www.immoweb.be/en/classified/apartment/for-sale/oudenburg/8460/11166600,11166600.0,Flanders,West Flanders,Oudenburg,8460.0,3.0030401,51.1853753,APARTMENT,APARTMENT,249000.0,2.0,87.0,unknown,,,0,0.0,1,2.0,0.0,2.0,,GOOD,GAS,B,124.0,,,2862.07
https://www.immoweb.be/en/classified/apartment/for-sale/knokke/8300/10654846,10654846.0,Flanders,West Flanders,Knokke,8300.0,3.2875148,51.348749,APARTMENT,APARTMENT,630000.0,2.0,63.0,unknown,,,0,0.0,0,0.0,0.0,2.0,,unknown,GAS,B,164.0,,,10000.0
https://www.immoweb.be/en/classified/apartment/for-sale/ixelles/1050/11166583,11166583.0,Brussels,Brussels,Ixelles,1050.0,,,APARTMENT,APARTMENT,1075000.0,2.0,219.0,HYPER_EQUIPPED,0.0,,1,35.0,1,81.0,0.0,2.0,False,AS_NEW,GAS,D,161.0,,,4908.68
https://www.immoweb.be/en/classified/duplex/for-sale/leuven/3012/11166579,11166579.0,Flanders,Flemish Brabant,Leuven,3012.0,4.714581,50.9127752,APARTMENT,DUPLEX,399000.0,3.0,120.0,unknown,,,1,0.0,0,0.0,0.0,2.0,,GOOD,GAS,B,136.0,1.0,,3325.0
https://www.immoweb.be/en/classified/apartment/for-sale/li%C3%88ge/4020/11166577,11166577.0,Wallonie,Liège,LIÈGE,4020.0,5.5834123,50.6363221,APARTMENT,APARTMENT,120000.0,1.0,41.0,NOT_INSTALLED,,,0,0.0,0,0.0,0.0,2.0,,AS_NEW,unknown,G,1019.0,,,2926.83
https://www.immoweb.be/en/classified/apartment/for-sale/heule/8501/11174577,11174577.0,Flanders,West Flanders,Heule,8501.0,3.2573866,50.84014,APARTMENT,APARTMENT,159000.0,2.0,103.0,unknown,0.0,,1,0.0,0,0.0,0.0,3.0,False,unknown,GAS,C,290.0,,1.0,1543.69
https://www.immoweb.be/en/classified/apartment/for-sale/antwerpen/2020/11174573,11174573.0,Flanders,Antwerp,Antwerpen,2020.0,4.3889375,51.1823665,APARTMENT,APARTMENT,249000.0,2.0,75.0,HYPER_EQUIPPED,0.0,,1,3.0,0,0.0,0.0,2.0,False,unknown,GAS,B,199.0,,,3320.0
https://www.immoweb.be/en/classified/apartment/for-sale/antwerpen/2020/11174572,11174572.0,Flanders,Antwerp,Antwerpen,2020.0,4.3889375,51.1823665,APARTMENT,APARTMENT,249000.0,2.0,75.0,HYPER_EQUIPPED,0.0,,1,3.0,0,0.0,0.0,2.0,False,unknown,GAS,B,181.0,,,3320.0
https://www.immoweb.be/en/classified/apartment/for-sale/bruxelles/1020/10864418,10864418.0,Brussels,Brussels,BRUXELLES,1020.0,4.3465348,50.8721999,APARTMENT,APARTMENT,655000.0,2.0,189.0,unknown,,-1.0,1,40.0,0,0.0,0.0,3.0,,unknown,unknown,E,238.0,,1.0,3465.61
https://www.immoweb.be/en/classified/apartment/for-sale/molenbeek-saint-jean/1080/11171927,11171927.0,Brussels,Brussels,Molenbeek-Saint-Jean,1080.0,4.31112,50.8577893,APARTMENT,APARTMENT,175000.0,2.0,80.0,SEMI_EQUIPPED,,,1,8.0,0,0.0,0.0,2.0,,unknown,FUELOIL,D,182.0,,,2187.5
https://www.immoweb.be/en/classified/apartment/for-sale/molenbeek-saint-jean/1080/11171925,11171925.0,Brussels,Brussels,Molenbeek-Saint-Jean,1080.0,4.3053209,50.8537315,APARTMENT,APARTMENT,245000.0,3.0,100.0,unknown,,,1,8.0,0,0.0,0.0,2.0,,GOOD,unknown,C,136.0,,,2450.0
https://www.immoweb.be/en/classified/apartment/for-sale/vis%C3%A9/4600/11171923,11171923.0,Wallonie,Liège,Visé,4600.0,5.6937949,50.7279509,APARTMENT,APARTMENT,165000.0,2.0,83.0,INSTALLED,0.0,,1,12.0,0,0.0,0.0,3.0,False,AS_NEW,ELECTRIC,C,172.0,,,1987.95
https://www.immoweb.be/en/classified/apartment/for-sale/nieuwpoort/8620/11174370,11174370.0,Flanders,West Flanders,NIEUWPOORT,8620.0,2.7135802,51.1471702,APARTMENT,APARTMENT,545000.0,3.0,108.0,INSTALLED,1.0,,0,0.0,0,0.0,0.0,2.0,,unknown,unknown,B,166.0,,,5046.3
https://www.immoweb.be/en/classified/ground-floor/for-sale/ixelles/1050/11174357,11174357.0,Brussels,Brussels,Ixelles,1050.0,4.3729573,50.8224483,APARTMENT,GROUND_FLOOR,649000.0,2.0,112.0,HYPER_EQUIPPED,0.0,,1,20.0,1,116.0,0.0,2.0,,GOOD,unknown,G,424.0,,,5794.64
https://www.immoweb.be/en/classified/apartment/for-sale/gent/9000/11171461,11171461.0,Flanders,East Flanders,Gent,9000.0,3.7103651,51.0666445,APARTMENT,APARTMENT,360000.0,1.0,85.0,INSTALLED,0.0,,1,10.0,0,0.0,0.0,2.0,False,AS_NEW,GAS,A,69.0,1.0,,4235.29
https://www.immoweb.be/en/classified/duplex/for-sale/leuven/3010/11171459,11171459.0,Flanders,Flemish Brabant,Leuven,3010.0,4.7198651,50.9031226,APARTMENT,DUPLEX,378000.0,2.0,103.0,unknown,,,1,40.0,0,0.0,0.0,2.0,,AS_NEW,GAS,B,166.0,,1.0,3669.9
https://www.immoweb.be/en/classified/apartment/for-sale/seraing/4100/11171449,11171449.0,Wallonie,Liège,Seraing,4100.0,5.5029766,50.5804584,APARTMENT,APARTMENT,220000.0,3.0,105.0,unknown,0.0,,1,11.0,0,0.0,0.0,3.0,False,unknown,GAS,C,178.0,,,2095.24
https://www.immoweb.be/en/classified/apartment/for-sale/oostrozebeke/8780/11171448,11171448.0,Flanders,West Flanders,Oostrozebeke,8780.0,3.3324273,50.9200537,APARTMENT,APARTMENT,415000.0,4.0,230.0,unknown,0.0,,1,21.0,1,10.0,0.0,4.0,False,unknown,GAS,D,307.0,,,1804.35
https://www.immoweb.be/en/classified/apartment/for-sale/tournai/7500/11174028,11174028.0,Wallonie,Hainaut,Tournai,7500.0,,,APARTMENT,APARTMENT,229000.0,1.0,87.0,INSTALLED,0.0,,1,0.0,0,0.0,0.0,2.0,False,AS_NEW,GAS,C,190.0,1.0,,2632.18
https://www.immoweb.be/en/classified/apartment/for-sale/lille%20wechelderzande/2275/11173984,11173984.0,Flanders,Antwerp,Lille Wechelderzande,2275.0,4.7884488,51.2624019,APARTMENT,APARTMENT,285983.0,2.0,92.0,unknown,,,1,0.0,0,0.0,0.0,4.0,,JUST_RENOVATED,unknown,B,123.0,5.0,4.0,3108.51
https://www.immoweb.be/en/classified/apartment/for-sale/knokke-heist/8300/11167517,11167517.0,Flanders,West Flanders,Knokke-Heist,8300.0,3.297358,51.3539012,APARTMENT,APARTMENT,1275000.0,3.0,93.0,USA_HYPER_EQUIPPED,0.0,,1,0.0,1,15.0,0.0,2.0,False,GOOD,GAS,C,217.0,1.0,1.0,13709.68
https://www.immoweb.be/en/classified/flat-studio/for-sale/tournai/7500/11167491,11167491.0,Wallonie,Hainaut,Tournai,7500.0,,,APARTMENT,FLAT_STUDIO,110000.0,1.0,56.0,HYPER_EQUIPPED,0.0,,0,0.0,0,0.0,0.0,2.0,False,GOOD,unknown,C,178.0,,,1964.29
https://www.immoweb.be/en/classified/apartment/for-sale/strombeek-bever/1853/10967053,10967053.0,Flanders,Flemish Brabant,Strombeek-Bever,1853.0,4.3551649,50.9071853,APARTMENT,APARTMENT,224000.0,3.0,97.0,SEMI_EQUIPPED,0.0,,0,0.0,0,0.0,0.0,4.0,False,TO_BE_DONE_UP,FUELOIL,C,247.0,,,2309.28
https://www.immoweb.be/en/classified/apartment/for-sale/bruxelles/1000/11167485,11167485.0,Brussels,Brussels,Bruxelles,1000.0,4.3530991,50.8579022,APARTMENT,APARTMENT,225000.0,1.0,50.0,USA_SEMI_EQUIPPED,0.0,,0,0.0,0,0.0,0.0,2.0,False,AS_NEW,GAS,F,277.0,,,4500.0
https://www.immoweb.be/en/classified/apartment/for-sale/berchem/2600/11167480,11167480.0,Flanders,Antwerp,BERCHEM,2600.0,4.4425387,51.2044903,APARTMENT,APARTMENT,219000.0,2.0,100.0,INSTALLED,,,1,6.0,0,0.0,0.0,2.0,,AS_NEW,GAS,B,132.0,,1.0,2190.0
https://www.immoweb.be/en/classified/apartment/for-sale/fl%C3%A9ron/4620/11167479,11167479.0,Wallonie,Liège,Fléron,4620.0,5.6928397,50.6134991,APARTMENT,APARTMENT,215000.0,1.0,68.0,unknown,0.0,,1,10.0,0,0.0,0.0,2.0,,AS_NEW,unknown,A,85.0,1.0,1.0,3161.76
https://www.immoweb.be/en/classified/apartment/for-sale/wavre/1300/11167477,11167477.0,Wallonie,Walloon Brabant,Wavre,1300.0,,,APARTMENT,APARTMENT,298000.0,1.0,83.0,HYPER_EQUIPPED,0.0,,0,0.0,0,0.0,0.0,3.0,,AS_NEW,GAS,B,114.0,12.0,,3590.36
https://www.immoweb.be/en/classified/apartment/for-sale/ixelles%20%28bruxelles%29/1050/11167455,11167455.0,Brussels,Brussels,Ixelles (Bruxelles),1050.0,,,APARTMENT,APARTMENT,255000.0,1.0,59.0,HYPER_EQUIPPED,0.0,,0,0.0,0,0.0,0.0,2.0,False,AS_NEW,GAS,D,173.0,,,4322.03
https://www.immoweb.be/en/classified/apartment/for-sale/antwerpen%20wilrijk/2610/11130732,11130732.0,Flanders,Antwerp,Antwerpen Wilrijk,2610.0,4.3974572,51.1756075,APARTMENT,APARTMENT,262900.0,2.0,87.0,INSTALLED,0.0,,1,11.0,0,0.0,0.0,2.0,False,AS_NEW,GAS,B,122.0,,1.0,3021.84
https://www.immoweb.be/en/classified/apartment/for-sale/zaventem/1930/11173800,11173800.0,Flanders,Flemish Brabant,Zaventem,1930.0,4.5090255,50.879379,APARTMENT,APARTMENT,325000.0,2.0,83.0,USA_HYPER_EQUIPPED,0.0,,1,6.0,0,0.0,0.0,2.0,,AS_NEW,unknown,A,99.0,32.0,,3915.66
https://www.immoweb.be/en/classified/flat-studio/for-sale/forest/1190/11173798,11173798.0,Brussels,Brussels,Forest,1190.0,4.3199775,50.8139799,APARTMENT,FLAT_STUDIO,199000.0,0.0,46.0,USA_HYPER_EQUIPPED,0.0,,1,3.0,0,0.0,0.0,2.0,False,AS_NEW,unknown,B,95.0,155.0,1.0,4326.09
https://www.immoweb.be/en/classified/apartment/for-sale/forest/1190/11173795,11173795.0,Brussels,Brussels,Forest,1190.0,4.3199775,50.8139799,APARTMENT,APARTMENT,399000.0,3.0,127.0,USA_HYPER_EQUIPPED,0.0,,1,34.0,0,0.0,0.0,2.0,False,AS_NEW,unknown,B,95.0,155.0,1.0,3141.73
https://www.immoweb.be/en/classified/apartment/for-sale/forest/1190/11173793,11173793.0,Brussels,Brussels,Forest,1190.0,4.3197078,50.8145302,APARTMENT,APARTMENT,259000.0,1.0,77.0,USA_HYPER_EQUIPPED,0.0,,1,7.0,0,0.0,0.0,2.0,False,AS_NEW,unknown,B,95.0,155.0,1.0,3363.64
https://www.immoweb.be/en/classified/apartment/for-sale/appels/9200/11169673,11169673.0,Flanders,East Flanders,APPELS,9200.0,4.0698633,51.0293487,APARTMENT,APARTMENT,349000.0,2.0,98.0,INSTALLED,,-1.0,1,8.0,1,0.0,0.0,3.0,,AS_NEW,GAS,A,62.0,,1.0,3561.22
https://www.immoweb.be/en/classified/apartment/for-sale/li%C3%A8ge/4000/11055881,11055881.0,Wallonie,Liège,Liège,4000.0,5.5535651,50.6335529,APARTMENT,APARTMENT,195000.0,2.0,85.0,INSTALLED,,,1,25.0,0,0.0,0.0,2.0,False,AS_NEW,GAS,B,152.0,,1.0,2294.12
https://www.immoweb.be/en/classified/apartment/for-sale/schoten/2900/11034285,11034285.0,Flanders,Antwerp,Schoten,2900.0,4.4878899,51.2546751,APARTMENT,APARTMENT,249000.0,3.0,100.0,SEMI_EQUIPPED,,-1.0,1,5.0,0,0.0,0.0,2.0,,TO_BE_DONE_UP,GAS,B,160.0,,1.0,2490.0
https://www.immoweb.be/en/classified/apartment/for-sale/uccle/1180/11169630,11169630.0,Brussels,Brussels,Uccle,1180.0,,,APARTMENT,APARTMENT,715000.0,3.0,150.0,unknown,0.0,,1,30.0,0,0.0,0.0,4.0,False,AS_NEW,GAS,B,60.0,1.0,1.0,4766.67
https://www.immoweb.be/en/classified/apartment/for-sale/middelkerke/8430/11169615,11169615.0,Flanders,West Flanders,MIDDELKERKE,8430.0,2.8187209,51.1895801,APARTMENT,APARTMENT,180000.0,2.0,81.0,INSTALLED,1.0,,0,0.0,0,0.0,0.0,2.0,,GOOD,FUELOIL,D,376.0,,,2222.22
https://www.immoweb.be/en/classified/apartment/for-sale/gerpinnes/6280/11170423,11170423.0,Wallonie,Hainaut,Gerpinnes,6280.0,4.5176269,50.3398385,APARTMENT,APARTMENT,240000.0,2.0,85.0,INSTALLED,0.0,,1,4.0,0,0.0,0.0,3.0,,unknown,GAS,B,93.0,2.0,,2823.53
https://www.immoweb.be/en/classified/apartment/for-sale/mons/7000/11170407,11170407.0,Wallonie,Hainaut,Mons,7000.0,3.9824525,50.4572431,APARTMENT,APARTMENT,109000.0,2.0,69.0,unknown,0.0,,1,11.0,0,0.0,0.0,2.0,False,GOOD,GAS,D,297.0,,,1579.71
https://www.immoweb.be/en/classified/apartment/for-sale/ganshoren/1083/11170371,11170371.0,Brussels,Brussels,GANSHOREN,1083.0,,,APARTMENT,APARTMENT,225000.0,3.0,80.0,SEMI_EQUIPPED,,,0,0.0,0,0.0,0.0,2.0,,unknown,unknown,E,267.0,,,2812.5
https://www.immoweb.be/en/classified/apartment/for-sale/ixelles/1050/11170368,11170368.0,Brussels,Brussels,Ixelles,1050.0,4.3775287,50.8153991,APARTMENT,APARTMENT,780000.0,2.0,150.0,INSTALLED,,-1.0,0,0.0,0,0.0,0.0,2.0,,JUST_RENOVATED,GAS,E,236.0,,1.0,5200.0
https://www.immoweb.be/en/classified/apartment/for-sale/wevelgem/8560/11170365,11170365.0,Flanders,West Flanders,Wevelgem,8560.0,3.186157,50.8097492,APARTMENT,APARTMENT,187000.0,2.0,95.0,unknown,,,0,0.0,0,0.0,0.0,2.0,,GOOD,GAS,B,155.0,,1.0,1968.42
https://www.immoweb.be/en/classified/apartment/for-sale/turnhout/2300/11035714,11035714.0,Flanders,Antwerp,Turnhout,2300.0,4.93878,51.3213974,APARTMENT,APARTMENT,174000.0,2.0,72.0,unknown,0.0,,0,0.0,0,0.0,0.0,2.0,False,TO_BE_DONE_UP,GAS,C,298.0,1.0,1.0,2416.67
https://www.immoweb.be/en/classified/penthouse/for-sale/boortmeerbeek/3191/11172652,11172652.0,Flanders,Flemish Brabant,Boortmeerbeek,3191.0,4.5378247,50.9979896,APARTMENT,PENTHOUSE,379000.0,2.0,102.0,INSTALLED,,-1.0,1,15.0,0,0.0,0.0,3.0,,unknown,GAS,A,29.0,,1.0,3715.69
https://www.immoweb.be/en/classified/apartment/for-sale/boortmeerbeek/3191/11172650,11172650.0,Flanders,Flemish Brabant,Boortmeerbeek,3191.0,4.5378247,50.9979896,APARTMENT,APARTMENT,379000.0,2.0,102.0,INSTALLED,,-1.0,1,15.0,0,0.0,0.0,3.0,,unknown,GAS,A,29.0,,1.0,3715.69
https://www.immoweb.be/en/classified/ground-floor/for-sale/wavre/1300/11172634,11172634.0,Wallonie,Walloon Brabant,Wavre,1300.0,,,APARTMENT,GROUND_FLOOR,299000.0,2.0,100.0,INSTALLED,,-1.0,1,0.0,1,437.0,0.0,4.0,,unknown,unknown,G,720.0,,,2990.0
https://www.immoweb.be/en/classified/apartment/for-sale/genval/1332/11172631,11172631.0,Wallonie,Walloon Brabant,Genval,1332.0,,,APARTMENT,APARTMENT,475000.0,4.0,171.0,HYPER_EQUIPPED,,-1.0,0,0.0,0,0.0,0.0,3.0,,JUST_RENOVATED,GAS,C,255.0,,,2777.78
https://www.immoweb.be/en/classified/apartment/for-sale/rixensart/1330/11172630,11172630.0,Wallonie,Walloon Brabant,Rixensart,1330.0,,,APARTMENT,APARTMENT,475000.0,4.0,171.0,HYPER_EQUIPPED,,-1.0,0,0.0,0,0.0,0.0,3.0,,JUST_RENOVATED,GAS,C,255.0,,,2777.78
https://www.immoweb.be/en/classified/apartment/for-sale/sint-niklaas/9100/11172604,11172604.0,Flanders,East Flanders,Sint-Niklaas,9100.0,4.1346493,51.1687747,APARTMENT,APARTMENT,979000.0,6.0,303.0,unknown,0.0,,1,39.0,0,0.0,0.0,2.0,False,unknown,GAS,B,178.0,,8.0,3231.02
https://www.immoweb.be/en/classified/apartment/for-sale/willebroek/2830/11172603,11172603.0,Flanders,Antwerp,Willebroek,2830.0,4.3560395,51.0695284,APARTMENT,APARTMENT,265000.0,3.0,86.0,unknown,,-1.0,0,0.0,1,0.0,0.0,2.0,,AS_NEW,GAS,B,136.0,,1.0,3081.4
